{
  "version": 0.6,
  "generator": "Overpass API 0.7.61.5 4133829e",
  "osm3s": {
    "timestamp_osm_base": "2023-11-17T19:45:43Z",
    "timestamp_areas_base": "2023-11-17T18:08:29Z",
    "copyright": "The data included in this document is from www.openstreetmap.org. The data is made available under ODbL."
  },
  "elements": [

{
  "type": "node",
  "id": 12101533,
  "lat": 49.6810158,
  "lon": 8.6227577,
  "tags": {
    "description": "Die Kernstadt ist Verwaltungssitz der Stadt Bensheim.",
    "ele": "115",
    "name": "Bensheim",
    "name:de": "Bensheim",
    "name:ru": "Бенсхайм",
    "name:sr": "Бенсхајм",
    "note": "Alle Daten des Gebiets der Kernstadt Bensheim sind in der zugehörigen Grenzrelation. Dieser node dient nur als (mögliches) label für den Gemeindenamen.",
    "place": "town",
    "population": "39642",
    "wikidata": "Q14872"
  }
},
{
  "type": "node",
  "id": 13354924,
  "lat": 48.6727602,
  "lon": 9.3838404,
  "tags": {
    "ele": "294",
    "name": "Wendlingen am Neckar",
    "name:ru": "Вендлинген-на-Неккаре",
    "name:sr": "Вендлинген ам Некар",
    "openGeoDB:combination_of_public_administration": "Verwaltungsverband Wendlingen am Neckar",
    "openGeoDB:community_identification_number": "08116071",
    "openGeoDB:license_plate_code": "ES",
    "openGeoDB:loc_id": "25940",
    "openGeoDB:telephone_area_code": "07024",
    "place": "town",
    "population": "15554",
    "postal_code": "73240",
    "wikidata": "Q81860",
    "wikipedia": "de:Wendlingen am Neckar"
  }
},
{
  "type": "node",
  "id": 13355228,
  "lat": 48.7427584,
  "lon": 9.3071685,
  "tags": {
    "alt_name": "Esslingen",
    "name": "Esslingen am Neckar",
    "name:ru": "Эсслинген-на-Неккаре",
    "name:sr": "Еслинген ам Некар",
    "openGeoDB:loc_id": "16357",
    "openGeoDB:postal_codes": "73728,73730,73732,73733,73734",
    "place": "town",
    "population": "92261",
    "wikidata": "Q3786"
  }
},
{
  "type": "node",
  "id": 13675911,
  "lat": 48.7111730,
  "lon": 9.4184961,
  "tags": {
    "ele": "276",
    "name": "Plochingen",
    "name:ru": "Плохинген",
    "name:sr": "Плохинген",
    "openGeoDB:combination_of_public_administration": "Verwaltungsverband Plochingen",
    "openGeoDB:community_identification_number": "08116056",
    "openGeoDB:is_in_loc_id": "370",
    "openGeoDB:layer": "6",
    "openGeoDB:license_plate_code": "ES",
    "openGeoDB:loc_id": "22505",
    "openGeoDB:telephone_area_code": "07153",
    "openGeoDB:type": "Stadt",
    "place": "town",
    "population": "13689",
    "postal_code": "73207",
    "wikidata": "Q82274",
    "wikipedia": "de:Plochingen"
  }
},
{
  "type": "node",
  "id": 14778814,
  "lat": 53.8687800,
  "lon": 8.6982860,
  "tags": {
    "ele": "2",
    "int_name": "Cuxhaven",
    "name": "Cuxhaven",
    "name:de": "Cuxhaven",
    "name:frr": "Cuxhuuwen",
    "name:nds": "Cuxhoben",
    "name:sr": "Куксхавен",
    "note": "name:frr was Tres, but wiki",
    "place": "town",
    "population": "48325",
    "ref:LOCODE": "DECUX",
    "website": "https://www.cuxhaven.de/",
    "wikidata": "Q4197",
    "wikipedia": "de:Cuxhaven"
  }
},
{
  "type": "node",
  "id": 14781245,
  "lat": 53.6886857,
  "lon": 9.1595122,
  "tags": {
    "ele": "5",
    "name": "Hemmoor",
    "name:nds": "Hemmoor",
    "name:sr": "Хемор",
    "place": "town",
    "population": "8714",
    "postal_code": "21745",
    "wikidata": "Q505729",
    "wikipedia": "de:Hemmoor"
  }
},
{
  "type": "node",
  "id": 16514646,
  "lat": 53.2992910,
  "lon": 9.2803820,
  "tags": {
    "is_in": "Zeven Stadt,Samtgemeinde Zeven,Landkreis Rotenburg (Wümme),Niedersachsen,Bundesrepublik Deutschland,Europe",
    "name": "Zeven",
    "name:nds": "Zeven",
    "name:sr": "Цевен",
    "place": "town",
    "population": "12133",
    "ref:LOCODE": "DEZEV",
    "wikidata": "Q197045"
  }
},
{
  "type": "node",
  "id": 17167482,
  "lat": 49.7694317,
  "lon": 11.3369898,
  "tags": {
    "ele": "457",
    "name": "Gößweinstein",
    "name:sr": "Гесвајнштајн",
    "openGeoDB:community_identification_number": "09474129",
    "openGeoDB:license_plate_code": "FO",
    "openGeoDB:loc_id": "17174",
    "openGeoDB:telephone_area_code": "09242",
    "openGeoDB:type": "Markt",
    "place": "town",
    "population": "4082",
    "postal_code": "91327",
    "website": "https://www.goessweinstein.de/gemeinde/",
    "wikidata": "Q507319",
    "wikipedia": "de:Gößweinstein"
  }
},
{
  "type": "node",
  "id": 17652682,
  "lat": 48.9397149,
  "lon": 8.4042700,
  "tags": {
    "ele": "133",
    "name": "Ettlingen",
    "name:ru": "Эттлинген",
    "name:sr": "Етлинген",
    "openGeoDB:community_identification_number": "08215017",
    "openGeoDB:is_in_loc_id": "585",
    "openGeoDB:layer": "6",
    "openGeoDB:license_plate_code": "KA",
    "openGeoDB:loc_id": "16376",
    "openGeoDB:telephone_area_code": "07243",
    "place": "town",
    "population": "38819",
    "postal_code": "76275",
    "source": "Historic \"Altstadt\" drawn by using geodata from 2010 and maps from 16th to 18th century for visualization",
    "wikidata": "Q14893",
    "wikipedia": "de:Ettlingen"
  }
},
{
  "type": "node",
  "id": 17848297,
  "lat": 54.1067652,
  "lon": 11.6171165,
  "tags": {
    "alt_name": "Ostseebad Rerik",
    "ele": "9",
    "name": "Rerik",
    "name:sr": "Рерик",
    "old_name": "Alt Gaarz",
    "place": "town",
    "population": "2153",
    "postal_code": "18230",
    "wikidata": "Q536844",
    "wikipedia": "de:Rerik"
  }
},
{
  "type": "node",
  "id": 18481614,
  "lat": 51.8382715,
  "lon": 6.6148669,
  "tags": {
    "ele": "25",
    "is_in": "Kreis Borken,Regierungsbezirk Münster,Nordrhein-Westfalen,Bundesrepublik Deutschland,Europe",
    "is_in:country_code": "DE",
    "is_in:iso_3166_2": "DE-NW",
    "name": "Bocholt",
    "name:ru": "Бохольт",
    "name:sr": "Бохолт",
    "old_name": "Bokelt",
    "openGeoDB:community_identification_number": "05554008",
    "openGeoDB:license_plate_code": "BOR",
    "openGeoDB:loc_id": "14632",
    "openGeoDB:postal_codes": "46395,46397,46399",
    "openGeoDB:telephone_area_code": "02871",
    "place": "town",
    "population": "70856",
    "start_date": "1222",
    "website": "https://www.bocholt.de/",
    "wikidata": "Q3917",
    "wikipedia": "de:Bocholt"
  }
},
{
  "type": "node",
  "id": 20931233,
  "lat": 48.1914326,
  "lon": 11.8673760,
  "tags": {
    "ele": "509",
    "name": "Markt Schwaben",
    "name:sr": "Маркт Швабен",
    "place": "town",
    "population": "12703",
    "postal_code": "85570",
    "wikidata": "Q552464",
    "wikipedia": "de:Markt Schwaben"
  }
},
{
  "type": "node",
  "id": 21070111,
  "lat": 53.4850249,
  "lon": 9.1362085,
  "tags": {
    "ele": "4",
    "name": "Bremervörde",
    "name:nds": "Bremervöör",
    "name:ru": "Бремерфёрде",
    "name:sr": "Бремерверде",
    "old_name": "Vörde",
    "place": "town",
    "population": "18701",
    "postal_code": "27432",
    "ref:LOCODE": "DEBMV",
    "source:old_name": "https://de.wikipedia.org/wiki/Erzstift_und_Herzogtum_Bremen",
    "website": "https://www.bremervoerde.de/",
    "wikidata": "Q501875",
    "wikipedia": "de:Bremervörde"
  }
},
{
  "type": "node",
  "id": 21108554,
  "lat": 53.7095145,
  "lon": 9.3854026,
  "tags": {
    "ele": "2",
    "name": "Drochtersen",
    "name:nds": "Drochters",
    "name:sr": "Дрохтерсен",
    "place": "town",
    "population": "5470",
    "postal_code": "21706",
    "wikidata": "Q505599",
    "wikipedia": "de:Drochtersen"
  }
},
{
  "type": "node",
  "id": 21133736,
  "lat": 47.8646925,
  "lon": 11.4793510,
  "tags": {
    "ele": "606",
    "is_in": "Bad Tölz-Wolfratshausen,Oberbayern,Bayern,Bundesrepublik Deutschland,Europe",
    "name": "Geretsried",
    "name:sr": "Геретсрид",
    "openGeoDB:community_identification_number": "09173126",
    "openGeoDB:is_in_loc_id": "423",
    "openGeoDB:layer": "6",
    "openGeoDB:license_plate_code": "TÖL",
    "openGeoDB:loc_id": "16957",
    "openGeoDB:telephone_area_code": "08171",
    "place": "town",
    "population": "24892",
    "postal_code": "82538",
    "website": "https://www.geretsried.de",
    "wikidata": "Q504780",
    "wikipedia": "de:Geretsried"
  }
},
{
  "type": "node",
  "id": 21452708,
  "lat": 51.6142482,
  "lon": 7.5228088,
  "tags": {
    "name": "Lünen",
    "name:ja": "リューネン",
    "name:ru": "Люнен",
    "name:sr": "Линен",
    "place": "town",
    "population": "90800",
    "wikidata": "Q3822",
    "wikipedia": "de:Lünen"
  }
},
{
  "type": "node",
  "id": 21453859,
  "lat": 50.6086518,
  "lon": 10.6926437,
  "tags": {
    "ele": "422",
    "is_capital": "county",
    "name": "Suhl",
    "name:ja": "ズール",
    "name:sr": "Зул",
    "openGeoDB:loc_id": "571",
    "place": "town",
    "population": "37300",
    "wikidata": "Q14891",
    "wikipedia": "de:Suhl"
  }
},
{
  "type": "node",
  "id": 21484051,
  "lat": 52.2994511,
  "lon": 13.6244389,
  "tags": {
    "ele": "36",
    "name": "Königs Wusterhausen",
    "name:dsb": "Parsk",
    "name:sr": "Кенигс Вустерхаузен",
    "old_name": "Wendisch Wusterhausen",
    "place": "town",
    "population": "38111",
    "population:date": "2020-12-31",
    "wikidata": "Q16013",
    "wikipedia": "de:Königs Wusterhausen"
  }
},
{
  "type": "node",
  "id": 21531206,
  "lat": 53.0594513,
  "lon": 9.0188655,
  "tags": {
    "ele": "15",
    "name": "Oyten",
    "name:nds": "Eiten",
    "name:sr": "Ојтен",
    "place": "town",
    "population": "15413",
    "postal_code": "28876",
    "ref:LOCODE": "DEOYT",
    "wikidata": "Q501642",
    "wikipedia": "de:Oyten"
  }
},
{
  "type": "node",
  "id": 21618724,
  "lat": 48.3456021,
  "lon": 8.4033079,
  "tags": {
    "ele": "441",
    "name": "Alpirsbach",
    "name:ru": "Альпирсбах",
    "name:sr": "Алпирсбах",
    "place": "town",
    "population": "6310",
    "postal_code": "72275",
    "wikidata": "Q82781",
    "wikipedia": "de:Alpirsbach"
  }
},
{
  "type": "node",
  "id": 21619679,
  "lat": 53.4767351,
  "lon": 9.7003941,
  "tags": {
    "int_name": "Buxtehude",
    "name": "Buxtehude",
    "name:de": "Buxtehude",
    "name:nds": "Buxthu",
    "name:ru": "Букстехуде",
    "name:sr": "Букстехуде",
    "place": "town",
    "population": "40122",
    "ref:LOCODE": "DEBUX",
    "wikidata": "Q14868",
    "wikipedia": "de:Buxtehude"
  }
},
{
  "type": "node",
  "id": 21622466,
  "lat": 48.6834040,
  "lon": 11.6124731,
  "tags": {
    "is_in": "Pfaffenhofen an der Ilm,Oberbayern,Bayern,Bundesrepublik Deutschland,Europe",
    "name": "Geisenfeld",
    "name:sr": "Гајзенфелд",
    "openGeoDB:combination_of_public_administration": "Verwaltungsgemeinschaft Geisenfeld",
    "openGeoDB:community_identification_number": "09186122",
    "openGeoDB:license_plate_code": "PAF",
    "openGeoDB:loc_id": "16898",
    "openGeoDB:telephone_area_code": "08452",
    "openGeoDB:type": "Stadt",
    "place": "town",
    "population": "9704",
    "wikidata": "Q259795",
    "wikipedia": "de:Geisenfeld"
  }
},
{
  "type": "node",
  "id": 21623655,
  "lat": 47.7222676,
  "lon": 12.8760923,
  "tags": {
    "ele": "473",
    "layer": "5",
    "name": "Bad Reichenhall",
    "name:ar": "باد رايشنهال",
    "name:bar": "Reichahoi",
    "name:bg": "Бад Райхенхал",
    "name:fa": "باد رایشنهال",
    "name:hy": "Բադ Ռայխենհալ",
    "name:ru": "Бад-Райхенхалль",
    "name:sr": "Бад Рајхенхал",
    "name:uk": "Бад-Райхенгалль",
    "name:zh": "巴特赖兴哈尔",
    "place": "town",
    "population": "17513",
    "postal_code": "83435",
    "wikidata": "Q487971",
    "wikipedia": "de:Bad Reichenhall"
  }
},
{
  "type": "node",
  "id": 21627771,
  "lat": 47.6310800,
  "lon": 13.0021634,
  "tags": {
    "ele": "572",
    "name": "Berchtesgaden",
    "name:bar": "Berchtsgoan",
    "name:fa": "برشتس گادن",
    "name:hy": "Բերխտեսգադեն",
    "name:ja": "ベルヒテスガーデン",
    "name:ru": "Берхтесгаден",
    "name:sr": "Берхтесгаден",
    "name:uk": "Берхтесгаден",
    "name:zh": "贝希特斯加登",
    "place": "town",
    "population": "7741",
    "wikidata": "Q278221",
    "wikipedia": "de:Berchtesgaden"
  }
},
{
  "type": "node",
  "id": 21635387,
  "lat": 49.3081639,
  "lon": 12.8452826,
  "tags": {
    "ele": "407",
    "name": "Furth im Wald",
    "name:cs": "Brod nad Lesy",
    "name:sr": "Фурт им Валд",
    "openGeoDB:community_identification_number": "09372126",
    "openGeoDB:is_in_loc_id": "246",
    "openGeoDB:layer": "6",
    "openGeoDB:license_plate_code": "CHA",
    "openGeoDB:loc_id": "16776",
    "openGeoDB:telephone_area_code": "09973",
    "place": "town",
    "population": "8953",
    "postal_code": "93437",
    "wikidata": "Q502370",
    "wikipedia": "de:Furth im Wald"
  }
},
{
  "type": "node",
  "id": 21635999,
  "lat": 47.5062921,
  "lon": 10.3699251,
  "tags": {
    "ele": "825",
    "name": "Bad Hindelang",
    "name:sr": "Бад Хинделанг",
    "openGeoDB:community_identification_number": "09780123",
    "openGeoDB:is_in_loc_id": "270",
    "openGeoDB:layer": "6",
    "openGeoDB:license_plate_code": "OA",
    "openGeoDB:loc_id": "13927",
    "openGeoDB:telephone_area_code": "08324",
    "place": "town",
    "population": "4899",
    "postal_code": "87541",
    "wikidata": "Q522573",
    "wikipedia": "de:Bad Hindelang"
  }
},
{
  "type": "node",
  "id": 21636385,
  "lat": 49.9427202,
  "lon": 11.5763079,
  "tags": {
    "ele": "340",
    "name": "Bayreuth",
    "name:ar": "بايرويت",
    "name:cs": "Barout",
    "name:el": "Μπαϊρόιτ",
    "name:fa": "بایرویت",
    "name:he": "ביירוית",
    "name:ja": "バイロイト",
    "name:ka": "ბაიროითი",
    "name:ru": "Байройт",
    "name:sr": "Бајројт",
    "name:zh": "拜罗伊特",
    "place": "town",
    "population": "72295",
    "wikidata": "Q3923",
    "wikipedia": "de:Bayreuth"
  }
},
{
  "type": "node",
  "id": 21636429,
  "lat": 50.1616746,
  "lon": 11.5055461,
  "tags": {
    "ele": "352",
    "name": "Stadtsteinach",
    "name:sr": "Штатштајнах",
    "place": "town",
    "population": "2561",
    "population:date": "1987-05-25",
    "postal_code": "95346",
    "wikidata": "Q427292",
    "wikimedia_commons": "Category:Stadtsteinach",
    "wikipedia": "de:Stadtsteinach"
  }
},
{
  "type": "node",
  "id": 21637109,
  "lat": 49.9389862,
  "lon": 11.2918916,
  "tags": {
    "ele": "403",
    "name": "Hollfeld",
    "name:sr": "Холфелд",
    "openGeoDB:combination_of_public_administration": "Verwaltungsgemeinschaft Hollfeld",
    "openGeoDB:community_identification_number": "09472154",
    "openGeoDB:license_plate_code": "BT",
    "openGeoDB:loc_id": "18588",
    "openGeoDB:telephone_area_code": "09274",
    "place": "town",
    "population": "5180",
    "postal_code": "96142",
    "wikidata": "Q503048",
    "wikipedia": "de:Hollfeld"
  }
},
{
  "type": "node",
  "id": 21724992,
  "lat": 50.1456800,
  "lon": 11.0638200,
  "tags": {
    "ele": "273",
    "name": "Lichtenfels",
    "name:sr": "Лихтенфелс",
    "place": "town",
    "population": "20169",
    "postal_code": "96215",
    "website": "https://www.lichtenfels.de/",
    "wikidata": "Q160405",
    "wikipedia": "de:Lichtenfels (Oberfranken)"
  }
},
{
  "type": "node",
  "id": 21749652,
  "lat": 49.8153930,
  "lon": 10.9895721,
  "tags": {
    "name": "Hirschaid",
    "name:sr": "Хиршајд",
    "openGeoDB:community_identification_number": "09471145",
    "openGeoDB:license_plate_code": "BA",
    "openGeoDB:loc_id": "18375",
    "openGeoDB:telephone_area_code": "09543",
    "openGeoDB:type": "Markt",
    "place": "town",
    "population": "12586",
    "postal_code": "96114",
    "wikidata": "Q538066",
    "wikipedia": "de:Hirschaid"
  }
},
{
  "type": "node",
  "id": 21749653,
  "lat": 49.7187319,
  "lon": 11.0595749,
  "tags": {
    "ele": "266",
    "name": "Forchheim",
    "name:sr": "Форххајм",
    "name:zh": "福希海姆",
    "note": "Große Kreisstadt",
    "openGeoDB:community_identification_number": "09474",
    "openGeoDB:license_plate_code": "FO",
    "openGeoDB:loc_id": "459",
    "openGeoDB:type": "Kreis",
    "place": "town",
    "population": "32907",
    "population:date": "2020-07-06",
    "postal_code": "91301",
    "source:population": "https://www.forchheim.de/forchheim-entdecken/unsere-stadt/daten-zahlen-und-fakten/",
    "wikidata": "Q16116",
    "wikipedia": "de:Forchheim"
  }
},
{
  "type": "node",
  "id": 21993086,
  "lat": 53.6288297,
  "lon": 11.4148038,
  "tags": {
    "alt_name": "Landeshauptstadt Schwerin",
    "capital": "4",
    "ele": "44",
    "name": "Schwerin",
    "name:ar": "شورين",
    "name:cs": "Zvěřín",
    "name:de": "Schwerin",
    "name:eo": "Ŝverino",
    "name:fa": "شورین",
    "name:he": "שוורין",
    "name:hsb": "Zwěrin",
    "name:hu": "Schwerin",
    "name:ja": "シュヴェリーン",
    "name:ko": "슈베린",
    "name:la": "Suerinum",
    "name:lt": "Šverinas",
    "name:lv": "Šverīne",
    "name:nds": "Swerin",
    "name:pl": "Schwerin",
    "name:ru": "Шверин",
    "name:sr": "Шверин",
    "name:uk": "Шверін",
    "name:ur": "شورین",
    "name:zh": "什未林",
    "old_name": "Zuarin",
    "old_name:pl": "Zwierzyn",
    "place": "town",
    "population": "95740",
    "ref:LOCODE": "DESWR",
    "website": "https://www.schwerin.de/",
    "wikidata": "Q1709",
    "wikipedia": "de:Schwerin"
  }
},
{
  "type": "node",
  "id": 21993401,
  "lat": 53.7709505,
  "lon": 12.5753569,
  "tags": {
    "ele": "10",
    "is_in": "Rostock,Mecklenburg-Vorpommern,Bundesrepublik Deutschland,Europe",
    "name": "Teterow",
    "name:sr": "Тетеров",
    "openGeoDB:community_identification_number": "13072106",
    "openGeoDB:is_in_loc_id": "286",
    "openGeoDB:layer": "6",
    "openGeoDB:license_plate_code": "LRE",
    "openGeoDB:loc_id": "24898",
    "openGeoDB:telephone_area_code": "03996",
    "place": "town",
    "population": "8671",
    "postal_code": "17166",
    "wikidata": "Q645748"
  }
},
{
  "type": "node",
  "id": 21993423,
  "lat": 53.8228766,
  "lon": 12.7918145,
  "tags": {
    "ele": "3",
    "is_in": "Mecklenburgische Seenplatte,Mecklenburg-Vorpommern,Bundesrepublik Deutschland,Europe",
    "name": "Neukalen",
    "name:sr": "Нојкален",
    "place": "town",
    "population": "1974",
    "postal_code": "17154",
    "wikidata": "Q50958",
    "wikipedia": "de:Neukalen"
  }
},
{
  "type": "node",
  "id": 22281426,
  "lat": 47.4429543,
  "lon": 11.2655684,
  "tags": {
    "int_name": "Mittenwald",
    "is_in": "Garmisch-Partenkirchen,Oberbayern,Bayern,Bundesrepublik Deutschland,Europe",
    "name": "Mittenwald",
    "name:bar": "Mittawoid",
    "name:de": "Mittenwald",
    "name:fa": "میتنوالد",
    "name:ja": "ミッテンヴァルト",
    "name:ru": "Миттенвальд",
    "name:sr": "Митенвалд",
    "name:zh": "米滕瓦尔德",
    "openGeoDB:auto_update": "population,is_in",
    "openGeoDB:community_identification_number": "09180123",
    "openGeoDB:is_in": "Garmisch-Partenkirchen,Oberbayern,Bayern,Bundesrepublik Deutschland,Europe",
    "openGeoDB:is_in_loc_id": "207",
    "openGeoDB:layer": "6",
    "openGeoDB:license_plate_code": "GAP",
    "openGeoDB:loc_id": "20976",
    "openGeoDB:name": "Mittenwald",
    "openGeoDB:population": "7926",
    "openGeoDB:postal_codes": "82481",
    "openGeoDB:sort_name": "MITTENWALD",
    "openGeoDB:telephone_area_code": "08823",
    "openGeoDB:type": "Markt",
    "openGeoDB:version": "0.2.6.11 / 2007-12-04 / http://fa-technik.adfc.de/code/opengeodb/dump/",
    "opengeodb:lat": "47.442883",
    "opengeodb:lon": "11.26493",
    "place": "town",
    "population": "7926",
    "wikidata": "Q127553",
    "wikipedia": "de:Mittenwald"
  }
},
{
  "type": "node",
  "id": 23771533,
  "lat": 50.2349797,
  "lon": 11.7163126,
  "tags": {
    "ele": "616",
    "name": "Helmbrechts",
    "name:sr": "Хелмбрехтс",
    "place": "town",
    "population": "9470",
    "postal_code": "95233",
    "wikidata": "Q494110",
    "wikipedia": "de:Helmbrechts"
  }
},
{
  "type": "node",
  "id": 24266004,
  "lat": 53.7344671,
  "lon": 11.7158035,
  "tags": {
    "ele": "20",
    "name": "Brüel",
    "name:ru": "Брюэль",
    "name:sr": "Брил",
    "place": "town",
    "population": "3169",
    "wikidata": "Q559019",
    "wikipedia": "de:Brüel"
  }
},
{
  "type": "node",
  "id": 24486765,
  "lat": 54.3096314,
  "lon": 13.0820846,
  "tags": {
    "ele": "9",
    "name": "Stralsund",
    "name:af": "Stralsund",
    "name:be": "Штральзунд",
    "name:bg": "Щралзунд",
    "name:br": "Stralsund",
    "name:ca": "Stralsund",
    "name:cs": "Stralsund",
    "name:csb": "Strzelewò",
    "name:da": "Stralsund",
    "name:de": "Stralsund",
    "name:en": "Stralsund",
    "name:eo": "Ŝtralsundo",
    "name:ja": "シュトラールズント",
    "name:ka": "შტრალზუნდი",
    "name:ko": "슈트랄준트",
    "name:la": "Stralsunda",
    "name:lv": "Štrālzunde",
    "name:mk": "Штралзунд",
    "name:nds": "Stralsund",
    "name:pl": "Strzałów",
    "name:ru": "Штральзунд",
    "name:sr": "Штралзунд",
    "name:uk": "Штральзунд",
    "name:zh": "施特拉爾松德",
    "openGeoDB:loc_id": "24665",
    "place": "town",
    "population": "57301",
    "postal_code": "18439",
    "wikidata": "Q4065",
    "wikipedia": "de:Stralsund"
  }
},
{
  "type": "node",
  "id": 24922915,
  "lat": 50.0560203,
  "lon": 8.2967151,
  "tags": {
    "name": "Erbenheim",
    "name:sr": "Ербенхајм",
    "place": "town",
    "wikidata": "Q518737",
    "wikipedia": "de:Wiesbaden-Erbenheim"
  }
},
{
  "type": "node",
  "id": 24964556,
  "lat": 53.9528957,
  "lon": 10.2121481,
  "tags": {
    "de:amtlicher_gemeindeschluessel": "01060092",
    "is_in": "Segeberg,Schleswig-Holstein,Bundesrepublik Deutschland,Europe",
    "name": "Wahlstedt",
    "name:sr": "Валштет",
    "place": "town",
    "population": "9391",
    "postal_code": "23812",
    "wikidata": "Q536506"
  }
},
{
  "type": "node",
  "id": 24984376,
  "lat": 50.1334166,
  "lon": 8.8393158,
  "tags": {
    "name": "Dörnigheim",
    "name:sr": "Дернингхајм",
    "note": "Alle Daten zum Gebiet des Stadtteils Dörnigheim, der Stadt Maintal, sind in der zugehörigen Grenzrelation. Dieser node dient nur zur Markierung der Ortsmitte.",
    "place": "town"
  }
},
{
  "type": "node",
  "id": 24984381,
  "lat": 50.1482175,
  "lon": 8.8023159,
  "tags": {
    "name": "Bischofsheim",
    "name:sr": "Бишофсхајм",
    "note": "Alle Daten zum Gebiet des Stadtteils Bischofsheim, der Stadt Maintal, sind in der zugehörigen Grenzrelation. Dieser node dient nur zur Markierung der Ortsmitte.",
    "place": "town"
  }
},
{
  "type": "node",
  "id": 25076969,
  "lat": 54.0757442,
  "lon": 9.9815377,
  "tags": {
    "alt_name:nds": "Neemünster",
    "de:amtlicher_gemeindeschluessel": "01004000",
    "ele": "22",
    "name": "Neumünster",
    "name:ja": "ノイミュンスター",
    "name:nds": "Niemünster",
    "name:sr": "Нојминстер",
    "place": "town",
    "population": "79197",
    "postal_codes": "24534,24536,24537,24539",
    "source:population": "2013",
    "wikidata": "Q3879",
    "wikipedia": "de:Neumünster"
  }
},
{
  "type": "node",
  "id": 25248769,
  "lat": 48.0662249,
  "lon": 11.6102245,
  "tags": {
    "ele": "556",
    "name": "Unterhaching",
    "name:bar": "Untahaching",
    "name:de": "Unterhaching",
    "name:fa": "اونترهاخینگ",
    "name:hy": "Ունթերհախինգ",
    "name:ru": "Унтерхахинг",
    "name:sr": "Унтерхахинг",
    "name:zh": "安達赫治",
    "openGeoDB:community_identification_number": "09184148",
    "openGeoDB:is_in_loc_id": "225",
    "openGeoDB:layer": "6",
    "openGeoDB:license_plate_code": "M",
    "openGeoDB:loc_id": "25245",
    "openGeoDB:telephone_area_code": "089",
    "place": "town",
    "population": "23217",
    "postal_code": "82008",
    "wikidata": "Q264899",
    "wikipedia": "de:Unterhaching"
  }
},
{
  "type": "node",
  "id": 25341447,
  "lat": 53.9981853,
  "lon": 10.7799016,
  "tags": {
    "name": "Timmendorfer Strand",
    "name:sr": "Тимендорфер Штранд",
    "note": "Alle Daten der Gemeinde sind in der zugehörigen Grenzrelation. Dieser node dient nur zur Markierung der Ortsmitte.",
    "place": "town"
  }
},
{
  "type": "node",
  "id": 25374180,
  "lat": 53.9626895,
  "lon": 10.8759851,
  "tags": {
    "name": "Travemünde",
    "name:ru": "Травемюде",
    "name:sr": "Травемунде",
    "place": "town",
    "population": "11000"
  }
},
{
  "type": "node",
  "id": 25438345,
  "lat": 50.5862066,
  "lon": 8.6742306,
  "tags": {
    "ele": "159",
    "name": "Gießen",
    "name:ar": "غيسن",
    "name:ja": "ギーセン",
    "name:la": "Giessa",
    "name:ru": "Гиссен",
    "name:sr": "Гисен",
    "openGeoDB:community_identification_number": "06531",
    "openGeoDB:is_in_loc_id": "172",
    "openGeoDB:layer": "5",
    "openGeoDB:license_plate_code": "GI",
    "openGeoDB:loc_id": "303",
    "openGeoDB:type": "Universitätsstadt",
    "place": "town",
    "population": "77733",
    "wikidata": "Q3874",
    "wikipedia": "de:Gießen"
  }
},
{
  "type": "node",
  "id": 25478935,
  "lat": 48.4031909,
  "lon": 12.7626208,
  "tags": {
    "ele": "416",
    "name": "Eggenfelden",
    "name:sr": "Егенфелден",
    "openGeoDB:community_identification_number": "09277116",
    "openGeoDB:is_in_loc_id": "412",
    "openGeoDB:layer": "6",
    "openGeoDB:license_plate_code": "PAN",
    "openGeoDB:loc_id": "15981",
    "openGeoDB:telephone_area_code": "08721",
    "place": "town",
    "population": "13090",
    "postal_code": "84307",
    "wikidata": "Q255201",
    "wikipedia": "de:Eggenfelden"
  }
},
{
  "type": "node",
  "id": 25532515,
  "lat": 47.9104632,
  "lon": 11.4266377,
  "tags": {
    "is_in": "Bad Tölz-Wolfratshausen,Oberbayern,Bayern,Bundesrepublik Deutschland,Europe",
    "name": "Wolfratshausen",
    "name:bar": "Woifratshausen",
    "name:sr": "Волфратсхаузен",
    "openGeoDB:community_identification_number": "09173147",
    "openGeoDB:layer": "6",
    "openGeoDB:license_plate_code": "TÖL",
    "openGeoDB:loc_id": "26392",
    "openGeoDB:telephone_area_code": "08171",
    "place": "town",
    "population": "17464",
    "wikidata": "Q503160",
    "wikipedia": "de:Wolfratshausen"
  }
},
{
  "type": "node",
  "id": 25553522,
  "lat": 49.2486550,
  "lon": 7.3641981,
  "tags": {
    "name": "Zweibrücken",
    "name:ar": "تسفايبروكن",
    "name:be": "Цвайбрукен",
    "name:de": "Zweibrücken",
    "name:es": "Dos Puentes",
    "name:fa": "تسوایبروکن",
    "name:fr": "Deux-Ponts",
    "name:ja": "ツヴァイブリュッケン",
    "name:sr": "Цвајбрикен",
    "name:uk": "Цвайбрюккен",
    "place": "town",
    "population": "34084",
    "postal_code": "66482",
    "wikidata": "Q16017",
    "wikipedia": "de:Zweibrücken"
  }
},
{
  "type": "node",
  "id": 25553755,
  "lat": 49.4518819,
  "lon": 7.5543118,
  "tags": {
    "name": "Ramstein-Miesenbach",
    "name:sr": "Рамштајн-Мизенбах",
    "place": "town",
    "population": "8107",
    "postal_code": "66877",
    "wikidata": "Q22867",
    "wikipedia": "de:Ramstein-Miesenbach"
  }
},
{
  "type": "node",
  "id": 25609932,
  "lat": 50.0865460,
  "lon": 8.4473240,
  "tags": {
    "ele": "136",
    "name": "Hofheim am Taunus",
    "name:ru": "Хофхайм-ам-Таунус",
    "name:sr": "Хофхајм ам Таунус",
    "place": "town",
    "population": "38556",
    "postal_code": "65719",
    "wikidata": "Q14896",
    "wikipedia": "de:Hofheim am Taunus"
  }
},
{
  "type": "node",
  "id": 25622784,
  "lat": 48.7371951,
  "lon": 11.1795268,
  "tags": {
    "name": "Neuburg an der Donau",
    "name:bar": "Neiburg an da Donau",
    "name:sr": "Нојбург ан дер Донау",
    "place": "town",
    "population": "28184",
    "short_name": "Neuburg a.d.Donau",
    "website": "https://www.neuburg-donau.de/",
    "wikidata": "Q123022482",
    "wikipedia": "de:Neuburg an der Donau"
  }
},
{
  "type": "node",
  "id": 25724771,
  "lat": 50.2544683,
  "lon": 9.2924223,
  "tags": {
    "description": "Wächtersbach ist namensgebender Hauptort und Verwaltungssitz der Stadt Wächtersbach.",
    "name": "Wächtersbach",
    "name:prefix": "Stadt",
    "name:sr": "Вехтерсбах",
    "note": "Alle Daten zum Gebiet der Kernstadt Wächtersbach, sind in der zugehörigen Grenzrelation. Dieser node dient nur zur Markierung der Ortsmitte.",
    "place": "town"
  }
},
{
  "type": "node",
  "id": 25728642,
  "lat": 50.2276774,
  "lon": 9.3485142,
  "tags": {
    "name": "Bad Orb",
    "name:sr": "Бад Орб",
    "note": "Alle Daten der Stadt Bad Orb sind in der zugehörigen Grenzrelation. Dieser node dient nur zur Markierung der Ortsmitte.",
    "place": "town"
  }
},
{
  "type": "node",
  "id": 25728670,
  "lat": 50.3116515,
  "lon": 9.4594009,
  "tags": {
    "name": "Steinau an der Straße",
    "name:prefix": "Brüder-Grimm-Stadt",
    "name:sr": "Штајнау ан дер Штрасе",
    "note": "Alle Daten zum Gebiet der Kernstadt Stadt Steinau an der Straße, sind in der zugehörigen Grenzrelation. Dieser node dient nur zur Markierung der Ortsmitte.",
    "place": "town"
  }
},
{
  "type": "node",
  "id": 25729405,
  "lat": 50.1780857,
  "lon": 9.0433074,
  "tags": {
    "name": "Langenselbold",
    "name:prefix": "Stadt",
    "name:ru": "Лангензельбольд",
    "name:sr": "Лангенселболд",
    "note": "Alle Daten zum Gebiet der Stadt Langenselbold, sind in der zugehörigen Grenzrelation. Dieser node dient nur zur Markierung der Ortsmitte.",
    "place": "town"
  }
},
{
  "type": "node",
  "id": 25733807,
  "lat": 49.7046173,
  "lon": 10.8077534,
  "tags": {
    "ele": "295",
    "name": "Höchstadt an der Aisch",
    "name:sr": "Хехштат ан дер Ајш",
    "openGeoDB:community_identification_number": "09572135",
    "openGeoDB:license_plate_code": "ERH",
    "openGeoDB:loc_id": "18423",
    "openGeoDB:telephone_area_code": "09193",
    "place": "town",
    "population": "13158",
    "postal_code": "91315",
    "website": "https://www.hoechstadt.de/",
    "wikidata": "Q510543",
    "wikipedia": "de:Höchstadt an der Aisch"
  }
},
{
  "type": "node",
  "id": 25735249,
  "lat": 49.6126495,
  "lon": 11.1300058,
  "tags": {
    "name": "Neunkirchen am Brand",
    "name:de": "Neunkirchen am Brand",
    "name:ru": "Нойнкирхен-ам-Бранд",
    "name:sr": "Нојкирхен ам Бранд",
    "place": "town",
    "population": "8520",
    "population:date": "2022-12-31",
    "source:population": "https://www.neunkirchen-am-brand.de/nk/zahlen_daten/einwohnerstatistik_ab_2012/",
    "website": "https://www.neunkirchen-am-brand.de/",
    "wikidata": "Q259289",
    "wikipedia": "de:Neunkirchen am Brand"
  }
},
{
  "type": "node",
  "id": 25738883,
  "lat": 49.8294358,
  "lon": 9.8820664,
  "tags": {
    "ele": "170",
    "is_in": "Würzburg,Unterfranken,Bayern,Bundesrepublik Deutschland,Europe",
    "name": "Veitshöchheim",
    "name:sr": "Фајтсхеххајм",
    "openGeoDB:community_identification_number": "09679202",
    "openGeoDB:is_in_loc_id": "273",
    "openGeoDB:layer": "6",
    "openGeoDB:license_plate_code": "WÜ",
    "openGeoDB:loc_id": "25354",
    "openGeoDB:telephone_area_code": "0931",
    "place": "town",
    "population": "9736",
    "postal_code": "97209",
    "wikidata": "Q573628",
    "wikipedia": "de:Veitshöchheim"
  }
},
{
  "type": "node",
  "id": 25738926,
  "lat": 50.0557181,
  "lon": 9.6910162,
  "tags": {
    "ele": "160",
    "is_in": "Main-Spessart,Unterfranken,Bayern,Bundesrepublik Deutschland,Europe",
    "name": "Gemünden am Main",
    "name:sr": "Геминден ам Мајн",
    "note": "Bitte keine Abkürzungen (\"a. Main\" statt \"am Main\") verwenden, da dadurch Adresssuche unmöglich wird!",
    "official_name": "Gemünden a.Main",
    "openGeoDB:community_identification_number": "09677131",
    "openGeoDB:is_in_loc_id": "507",
    "openGeoDB:license_plate_code": "MSP",
    "openGeoDB:loc_id": "16929",
    "openGeoDB:telephone_area_code": "09351",
    "place": "town",
    "population": "10290",
    "postal_code": "97737",
    "wikidata": "Q505332",
    "wikipedia": "de:Gemünden am Main"
  }
},
{
  "type": "node",
  "id": 25746979,
  "lat": 51.3521221,
  "lon": 13.2209664,
  "tags": {
    "name": "Strehla",
    "name:hsb": "Strjela",
    "name:sr": "Штрела",
    "openGeoDB:auto_update": "population,is_in",
    "openGeoDB:community_identification_number": "14285330",
    "openGeoDB:is_in": "Riesa-Großenhain,Dresden,Sachsen,Bundesrepublik Deutschland,Europe",
    "openGeoDB:is_in_loc_id": "483",
    "openGeoDB:layer": "6",
    "openGeoDB:license_plate_code": "RG",
    "openGeoDB:loc_id": "24681",
    "openGeoDB:name": "Strehla",
    "openGeoDB:population": "4342",
    "openGeoDB:postal_codes": "01616",
    "openGeoDB:sort_name": "STREHLA",
    "openGeoDB:telephone_area_code": "035264",
    "openGeoDB:type": "Stadt",
    "openGeoDB:version": "0.2.6.11 / 2007-12-04 / http://fa-technik.adfc.de/code/opengeodb/dump/",
    "opengeodb:lat": "51.3525191",
    "opengeodb:lon": "13.2215819",
    "place": "town",
    "population": "4342"
  }
},
{
  "type": "node",
  "id": 25746980,
  "lat": 51.3038241,
  "lon": 13.3088280,
  "tags": {
    "ele": "109",
    "is_in": "Sachsen,Bundesrepublik Deutschland,Europe",
    "name": "Riesa",
    "name:ar": "ريزا",
    "name:ba": "Риза",
    "name:de": "Riesa",
    "name:fa": "ریزا",
    "name:hsb": "Ryzawa",
    "name:ru": "Риза",
    "name:sr": "Риза",
    "name:ur": "ریزا",
    "openGeoDB:community_identification_number": "14285250",
    "openGeoDB:license_plate_code": "RG",
    "openGeoDB:loc_id": "23110",
    "openGeoDB:postal_codes": "01589,01587,01591",
    "openGeoDB:telephone_area_code": "03525",
    "place": "town",
    "population": "31760",
    "website": "https://www.riesa.de/",
    "wikidata": "Q8775",
    "wikipedia": "de:Riesa"
  }
},
{
  "type": "node",
  "id": 25927283,
  "lat": 49.3561174,
  "lon": 11.2396099,
  "tags": {
    "name": "Schwarzenbruck",
    "name:ru": "Шварценбрук",
    "name:sr": "Шварценбрук",
    "place": "town",
    "population": "8397",
    "website": "https://www.schwarzenbruck.de/",
    "wikidata": "Q508456",
    "wikipedia": "de:Schwarzenbruck"
  }
},
{
  "type": "node",
  "id": 25935131,
  "lat": 50.0850003,
  "lon": 11.2400354,
  "tags": {
    "ele": "316",
    "name": "Weismain",
    "name:sr": "Вајсмајн",
    "place": "town",
    "population": "4845",
    "postal_code": "96260",
    "website": "https://www.stadt-weismain.de/",
    "wikidata": "Q502610",
    "wikipedia": "de:Weismain"
  }
},
{
  "type": "node",
  "id": 25940795,
  "lat": 51.2800216,
  "lon": 12.9389605,
  "tags": {
    "name": "Wermsdorf",
    "name:sr": "Вермсдорф",
    "openGeoDB:auto_update": "population,is_in",
    "openGeoDB:community_identification_number": "14389340",
    "openGeoDB:is_in": "Torgau-Oschatz,Leipzig,Sachsen,Bundesrepublik Deutschland,Europe",
    "openGeoDB:is_in_loc_id": "519",
    "openGeoDB:layer": "6",
    "openGeoDB:license_plate_code": "TO",
    "openGeoDB:loc_id": "25978",
    "openGeoDB:name": "Wermsdorf",
    "openGeoDB:population": "6136",
    "openGeoDB:postal_codes": "04779",
    "openGeoDB:sort_name": "WERMSDORF",
    "openGeoDB:telephone_area_code": "034364",
    "openGeoDB:type": "Gemeinde",
    "openGeoDB:version": "0.2.6.11 / 2007-12-04 / http://fa-technik.adfc.de/code/opengeodb/dump/",
    "opengeodb:lat": "51.2799025",
    "opengeodb:lon": "12.9368608",
    "place": "town",
    "population": "6136"
  }
},
{
  "type": "node",
  "id": 25942226,
  "lat": 50.1391777,
  "lon": 11.5766311,
  "tags": {
    "ele": "467",
    "name": "Kupferberg",
    "name:sr": "Купферберг",
    "place": "town",
    "population": "1035",
    "postal_code": "95362",
    "wikidata": "Q505242",
    "wikipedia": "de:Kupferberg"
  }
},
{
  "type": "node",
  "id": 25956662,
  "lat": 51.2785751,
  "lon": 12.3718819,
  "tags": {
    "ele": "115",
    "is_in": "Leipziger Land,Leipzig,Sachsen,Bundesrepublik Deutschland,Europe",
    "name": "Markkleeberg",
    "name:ru": "Марклеберг",
    "name:sr": "Маркклеберг",
    "openGeoDB:community_identification_number": "14379450",
    "openGeoDB:is_in_loc_id": "508",
    "openGeoDB:layer": "6",
    "openGeoDB:license_plate_code": "L",
    "openGeoDB:loc_id": "20636",
    "openGeoDB:telephone_area_code": "034299",
    "place": "town",
    "population": "23940",
    "postal_code": "04416",
    "website": "https://www.markkleeberg.de/",
    "wikidata": "Q10782",
    "wikipedia": "de:Markkleeberg"
  }
},
{
  "type": "node",
  "id": 25960294,
  "lat": 52.3964639,
  "lon": 9.5942870,
  "tags": {
    "ele": "50",
    "name": "Seelze",
    "name:nds": "Seelze",
    "name:sr": "Зелце",
    "place": "town",
    "population": "32397",
    "postal_code": "30926",
    "wikidata": "Q16052",
    "wikipedia": "de:Seelze"
  }
},
{
  "type": "node",
  "id": 25960296,
  "lat": 52.2340379,
  "lon": 9.8534254,
  "tags": {
    "ele": "64",
    "name": "Sarstedt",
    "name:sr": "Зарштет",
    "place": "town",
    "population": "18237",
    "wikidata": "Q558620",
    "wikipedia": "de:Sarstedt"
  }
},
{
  "type": "node",
  "id": 25964978,
  "lat": 51.4586736,
  "lon": 12.6344389,
  "tags": {
    "ele": "106",
    "is_in": "Delitzsch,Leipzig,Sachsen,Bundesrepublik Deutschland,Europe",
    "name": "Eilenburg",
    "name:hsb": "Jiłow (Eilenburg)",
    "name:ru": "Айленбург",
    "name:sr": "Ајленбург",
    "openGeoDB:community_identification_number": "14374090",
    "openGeoDB:license_plate_code": "DZ",
    "openGeoDB:loc_id": "16048",
    "openGeoDB:telephone_area_code": "03423",
    "place": "town",
    "population": "17950",
    "postal_code": "04838",
    "wikidata": "Q12055",
    "wikipedia": "de:Eilenburg"
  }
},
{
  "type": "node",
  "id": 26066670,
  "lat": 53.5902946,
  "lon": 6.6682175,
  "tags": {
    "name": "Borkum",
    "name:sr": "Боркум",
    "place": "town",
    "population": "5559",
    "wikidata": "Q25082",
    "wikipedia": "de:Borkum"
  }
},
{
  "type": "node",
  "id": 26118368,
  "lat": 50.2581120,
  "lon": 10.9644630,
  "tags": {
    "ele": "292",
    "is_capital": "county",
    "name": "Coburg",
    "name:ar": "كوبورغ",
    "name:cs": "Koburk",
    "name:es": "Coburgo",
    "name:fa": "کوبورگ",
    "name:fr": "Cobourg",
    "name:it": "Coburgo",
    "name:ja": "コーブルク",
    "name:pt": "Coburgo",
    "name:ru": "Кобург",
    "name:sr": "Кобург",
    "name:th": "โคบูร์ก",
    "name:zh": "科堡",
    "place": "town",
    "population": "41405",
    "ref:LOCODE": "DECOB",
    "wikidata": "Q14821",
    "wikipedia": "de:Coburg"
  }
},
{
  "type": "node",
  "id": 26120920,
  "lat": 51.5911653,
  "lon": 12.5856428,
  "tags": {
    "ele": "98",
    "name": "Bad Düben",
    "name:sr": "Бад Дибен",
    "place": "town",
    "population": "8000",
    "postal_code": "04849",
    "website": "https://www.bad-dueben.de",
    "wikidata": "Q12041",
    "wikipedia": "de:Bad Düben"
  }
},
{
  "type": "node",
  "id": 26309926,
  "lat": 50.0428901,
  "lon": 11.6678287,
  "tags": {
    "ele": "391",
    "name": "Bad Berneck",
    "name:sr": "Бад Бернек",
    "place": "town",
    "population": "3047",
    "population:date": "1987-05-25",
    "postal_code": "95460",
    "wikidata": "Q113995770",
    "wikimedia_commons": "Category:Bad Berneck im Fichtelgebirge",
    "wikipedia": "de:Bad Berneck im Fichtelgebirge"
  }
},
{
  "type": "node",
  "id": 26315938,
  "lat": 47.5135363,
  "lon": 10.2819310,
  "tags": {
    "ele": "741",
    "name": "Sonthofen",
    "name:ar": "زونتهوفن",
    "name:bar": "Sonthofa",
    "name:de": "Sonthofen",
    "name:fa": "زونتهوفن",
    "name:hy": "Զոնտհոֆեն",
    "name:ru": "Зонтхофен",
    "name:sr": "Зонтхофен",
    "name:zh": "松特霍芬",
    "place": "town",
    "population": "14000",
    "postal_code": "87527"
  }
},
{
  "type": "node",
  "id": 26316629,
  "lat": 48.9797657,
  "lon": 9.5794661,
  "tags": {
    "ele": "291",
    "name": "Murrhardt",
    "name:ru": "Мурхардт",
    "name:sr": "Мурхарт",
    "place": "town",
    "population": "13577",
    "postal_code": "71540",
    "wikidata": "Q81768",
    "wikipedia": "de:Murrhardt"
  }
},
{
  "type": "node",
  "id": 26339047,
  "lat": 52.9666845,
  "lon": 10.5584863,
  "tags": {
    "ele": "43",
    "name": "Uelzen",
    "name:nds": "Uelzen",
    "name:ru": "Ильцен",
    "name:sr": "Илцен",
    "place": "town",
    "population": "33338",
    "ref:LOCODE": "DEUEL",
    "wikidata": "Q15989",
    "wikipedia": "de:Uelzen"
  }
},
{
  "type": "node",
  "id": 26595210,
  "lat": 48.7112108,
  "lon": 8.7452043,
  "tags": {
    "admin_level": "6",
    "ele": "347",
    "name": "Calw",
    "name:ru": "Кальв",
    "openGeoDB:community_identification_number": "08235",
    "openGeoDB:is_in_loc_id": "160",
    "openGeoDB:license_plate_code": "CW",
    "openGeoDB:loc_id": "574",
    "openGeoDB:type": "Landkreis",
    "place": "town",
    "population": "22374",
    "postal_code": "75365",
    "wikidata": "Q487921",
    "wikipedia": "de:Calw"
  }
},
{
  "type": "node",
  "id": 26595247,
  "lat": 48.7712716,
  "lon": 8.7321279,
  "tags": {
    "ele": "320",
    "name": "Bad Liebenzell",
    "name:be": "Бад-Лібенцэль",
    "name:fa": "باد لیبن‌زل",
    "name:kk": "Бад-Либенцелль",
    "name:ru": "Бад-Либенцелль",
    "name:sr": "Бад Либенцел",
    "name:zh": "巴德利本策尔",
    "place": "town",
    "population": "8996",
    "postal_code": "75378",
    "wikidata": "Q522349",
    "wikipedia": "de:Bad Liebenzell"
  }
},
{
  "type": "node",
  "id": 26597860,
  "lat": 48.4008273,
  "lon": 11.7439565,
  "tags": {
    "ele": "448",
    "name": "Freising",
    "name:ar": "فرايزنغ",
    "name:bar": "Freising",
    "name:bg": "Фрайзинг",
    "name:el": "Φράιζινγκ",
    "name:en": "Freising",
    "name:es": "Frisinga",
    "name:fa": "فرایزنگ",
    "name:fr": "Frisingue",
    "name:hy": "Ֆրայզինգ",
    "name:it": "Frisinga",
    "name:ja": "フライジンク",
    "name:kk": "Фрайзинг",
    "name:ko": "프라이징",
    "name:la": "Frisinga",
    "name:lt": "Freizingas",
    "name:pl": "Fryzynga",
    "name:pnb": "فریزنگ",
    "name:ru": "Фрайзинг",
    "name:sr": "Фрајзинг",
    "name:uk": "Фрайзінг",
    "name:zh": "弗赖辛",
    "place": "town",
    "population": "45857",
    "source": "genesis-online",
    "wikidata": "Q6998",
    "wikipedia": "de:Freising"
  }
},
{
  "type": "node",
  "id": 26615771,
  "lat": 52.2499307,
  "lon": 10.8171691,
  "tags": {
    "ele": "134",
    "name": "Königslutter am Elm",
    "name:de": "Königslutter am Elm",
    "name:ru": "Кёнигслуттер-ам-Эльм",
    "name:sr": "Кенигслутер ам Елм",
    "place": "town",
    "population": "15666",
    "website": "https://www.koenigslutter.de/",
    "wikidata": "Q39596",
    "wikipedia": "de:Königslutter am Elm"
  }
},
{
  "type": "node",
  "id": 26632680,
  "lat": 50.3101036,
  "lon": 9.7892824,
  "tags": {
    "ele": "332",
    "name": "Bad Brückenau",
    "name:sr": "Бад Брикенау",
    "openGeoDB:community_identification_number": "09672113",
    "openGeoDB:is_in_loc_id": "481",
    "openGeoDB:license_plate_code": "KG",
    "openGeoDB:loc_id": "13884",
    "openGeoDB:telephone_area_code": "09741",
    "place": "town",
    "population": "6400",
    "postal_code": "97769",
    "source": "Bing",
    "wikidata": "Q504513",
    "wikipedia": "de:Bad Brückenau"
  }
},
{
  "type": "node",
  "id": 26732868,
  "lat": 50.6448582,
  "lon": 7.2272534,
  "tags": {
    "ele": "75",
    "is_in": "Rhein-Sieg-Kreis,Regierungsbezirk Köln,Nordrhein-Westfalen,Bundesrepublik Deutschland,Europe",
    "name": "Bad Honnef",
    "name:sr": "Бад Хонеф",
    "openGeoDB:community_identification_number": "05382008",
    "openGeoDB:license_plate_code": "SU",
    "openGeoDB:loc_id": "13930",
    "openGeoDB:telephone_area_code": "02224",
    "place": "town",
    "population": "24845",
    "postal_code": "53604",
    "wikidata": "Q12434",
    "wikipedia": "de:Bad Honnef"
  }
},
{
  "type": "node",
  "id": 26732877,
  "lat": 50.6256808,
  "lon": 6.9491436,
  "tags": {
    "ele": "173",
    "is_in": "Rhein-Sieg-Kreis,Regierungsbezirk Köln,Nordrhein-Westfalen,Bundesrepublik Deutschland,Europe",
    "name": "Rheinbach",
    "name:ru": "Райнбах",
    "name:sr": "Рајнбах",
    "openGeoDB:community_identification_number": "05382048",
    "openGeoDB:is_in_loc_id": "194",
    "openGeoDB:license_plate_code": "SU",
    "openGeoDB:loc_id": "23055",
    "openGeoDB:telephone_area_code": "02226",
    "place": "town",
    "population": "26790",
    "postal_code": "53359",
    "website": "https://www.rheinbach.de/",
    "wikidata": "Q12547",
    "wikipedia": "de:Rheinbach"
  }
},
{
  "type": "node",
  "id": 26752159,
  "lat": 49.1054193,
  "lon": 10.9847038,
  "tags": {
    "is_in": "Weißenburg-Gunzenhausen,Mittelfranken,Bayern,Bundesrepublik Deutschland,Europe",
    "name": "Pleinfeld",
    "name:sr": "Плејнфелд",
    "openGeoDB:auto_update": "population,is_in",
    "openGeoDB:community_identification_number": "09577161",
    "openGeoDB:is_in": "Weißenburg-Gunzenhausen,Mittelfranken,Bayern,Bundesrepublik Deutschland,Europe",
    "openGeoDB:is_in_loc_id": "632",
    "openGeoDB:layer": "6",
    "openGeoDB:license_plate_code": "WUG",
    "openGeoDB:loc_id": "22494",
    "openGeoDB:name": "Pleinfeld",
    "openGeoDB:population": "7405",
    "openGeoDB:postal_codes": "91785",
    "openGeoDB:sort_name": "PLEINFELD",
    "openGeoDB:telephone_area_code": "09144",
    "openGeoDB:type": "Markt",
    "openGeoDB:version": "0.2.6.11 / 2007-12-04 / http://fa-technik.adfc.de/code/opengeodb/dump/",
    "opengeodb:lat": "49.10233",
    "opengeodb:lon": "10.9873349",
    "place": "town",
    "population": "7405",
    "postal_code": "91785",
    "wikidata": "Q252320"
  }
},
{
  "type": "node",
  "id": 26752984,
  "lat": 49.3295535,
  "lon": 11.0195132,
  "tags": {
    "ele": "326",
    "name": "Schwabach",
    "name:sr": "Швабах",
    "openGeoDB:community_identification_number": "09565",
    "openGeoDB:license_plate_code": "SC",
    "openGeoDB:loc_id": "620",
    "place": "town",
    "population": "40428",
    "postal_code": "91126",
    "wikidata": "Q14889",
    "wikipedia": "de:Schwabach"
  }
},
{
  "type": "node",
  "id": 26777042,
  "lat": 51.1868670,
  "lon": 10.0575056,
  "tags": {
    "description": "Der Ort Eschwege ist Verwaltungssitz der gleichnamigen Gemeinde Eschwege, sowie des Werra-Meißner-Kreises.",
    "name": "Eschwege",
    "name:prefix": "Kreisstadt",
    "note": "Alle Daten des Gebiets der Kernstadt, der Stadt Eschwege, sind in der zugehörigen Grenzrelation. Dieser node dient nur als (mögliches) label für den Gemeindenamen.",
    "place": "town"
  }
},
{
  "type": "node",
  "id": 26809984,
  "lat": 53.1165973,
  "lon": 9.7925898,
  "tags": {
    "ele": "97",
    "name": "Schneverdingen",
    "name:nds": "Snevern",
    "name:sr": "Шневердинген",
    "place": "town",
    "population": "18723",
    "postal_code": "29640",
    "wikidata": "Q503006",
    "wikipedia": "de:Schneverdingen"
  }
},
{
  "type": "node",
  "id": 26891335,
  "lat": 51.2266750,
  "lon": 6.6193924,
  "tags": {
    "de:amtlicher_gemeindeschluessel": "05162016",
    "ele": "35",
    "name": "Kaarst",
    "name:fa": "کارست",
    "name:ksh": "Kaasch",
    "name:ru": "Карст",
    "name:sr": "Карст",
    "place": "town",
    "population": "42001",
    "postal_code": "41564",
    "telephone_area_code": "02131",
    "website": "http://www.kaarst.de",
    "wikidata": "Q7088",
    "wikipedia": "de:Kaarst"
  }
},
{
  "type": "node",
  "id": 26965687,
  "lat": 50.6739719,
  "lon": 7.1930989,
  "tags": {
    "ele": "80",
    "is_in": "Rhein-Sieg-Kreis,Regierungsbezirk Köln,Nordrhein-Westfalen,Bundesrepublik Deutschland,Europe",
    "name": "Königswinter",
    "openGeoDB:community_identification_number": "05382024",
    "openGeoDB:license_plate_code": "SU",
    "openGeoDB:loc_id": "19548",
    "openGeoDB:telephone_area_code": "02223",
    "place": "town",
    "population": "39976",
    "postal_code": "53639",
    "website": "https://www.koenigswinter.de/",
    "wikidata": "Q12444",
    "wikipedia": "de:Königswinter",
    "wikipedia:en": "Königswinter",
    "wikipedia:fr": "Königswinter"
  }
},
{
  "type": "node",
  "id": 26969262,
  "lat": 50.8614612,
  "lon": 13.1694372,
  "tags": {
    "ele": "400",
    "is_in": "Mittelsachsen,Chemnitz,Sachsen,Bundesrepublik Deutschland,Europe",
    "name": "Oederan",
    "openGeoDB:combination_of_public_administration": "Verwaltungsgemeinschaft Oederan",
    "openGeoDB:community_identification_number": "14177340",
    "openGeoDB:license_plate_code": "FG",
    "openGeoDB:loc_id": "22070",
    "openGeoDB:postal_codes": "09569",
    "openGeoDB:telephone_area_code": "037292",
    "place": "town",
    "population": "8258",
    "wikidata": "Q71141",
    "wikipedia": "de:Oederan"
  }
},
{
  "type": "node",
  "id": 27010106,
  "lat": 51.6626800,
  "lon": 7.6355052,
  "tags": {
    "ele": "60",
    "license_plate_code": "UN",
    "name": "Werne",
    "name:ja": "ウェルネ",
    "name:sr": "Верне",
    "note": "population < 100.000, town not city",
    "place": "town",
    "population": "29448",
    "postal_code": "59368",
    "website": "https://www.werne.de/",
    "wikidata": "Q10936",
    "wikipedia": "de:Werne"
  }
},
{
  "type": "node",
  "id": 27016038,
  "lat": 54.4172673,
  "lon": 13.4305634,
  "tags": {
    "alt_name:pl": "Góra",
    "de:amtlicher_gemeindeschluessel": "13073010",
    "name": "Bergen auf Rügen",
    "name:sr": "Берген ауф Риген",
    "place": "town",
    "population": "14328",
    "postal_code": "18528",
    "website": "https://www.stadt-bergen-auf-ruegen.de",
    "wikidata": "Q492538",
    "wikipedia": "de:Bergen auf Rügen"
  }
},
{
  "type": "node",
  "id": 27016199,
  "lat": 54.2007307,
  "lon": 12.8857023,
  "tags": {
    "name": "Richtenberg",
    "openGeoDB:combination_of_public_administration": "Amt Franzburg-Richtenberg",
    "openGeoDB:community_identification_number": "13073076",
    "openGeoDB:license_plate_code": "NVP",
    "openGeoDB:loc_id": "23078",
    "openGeoDB:telephone_area_code": "038322",
    "place": "town",
    "population": "1319",
    "population:date": "2021-12-31",
    "postal_code": "18461",
    "source:population": "wikipedia",
    "website": "https://www.amt-franzburg-richtenberg.de/richtenberg/",
    "wikidata": "Q571963",
    "wikipedia": "de:Richtenberg"
  }
},
{
  "type": "node",
  "id": 27070035,
  "lat": 49.8431642,
  "lon": 7.8657658,
  "tags": {
    "ele": "104",
    "name": "Bad Kreuznach",
    "name:sr": "Бад Кројцнах",
    "place": "town",
    "population": "52385",
    "postal_code": "55545;55543",
    "wikidata": "Q7047",
    "wikipedia": "de:Bad Kreuznach"
  }
},
{
  "type": "node",
  "id": 27073775,
  "lat": 51.8070405,
  "lon": 10.3364483,
  "tags": {
    "ele": "565",
    "name": "Clausthal-Zellerfeld",
    "name:ru": "Клаусталь-Целлерфельд",
    "name:sr": "Клаустал-Целерфелд",
    "place": "town",
    "population": "15413",
    "ref:LOCODE": "DECUL",
    "website": "https://clausthal.info",
    "wikidata": "Q504590",
    "wikipedia": "de:Clausthal-Zellerfeld"
  }
},
{
  "type": "node",
  "id": 27217470,
  "lat": 51.3323702,
  "lon": 13.3382965,
  "tags": {
    "ele": "98",
    "is_in": "Riesa-Großenhain,Dresden,Sachsen,Bundesrepublik Deutschland,Europe",
    "name": "Zeithain",
    "name:de": "Zeithain",
    "name:hsb": "Cytań",
    "openGeoDB:community_identification_number": "14285420",
    "openGeoDB:license_plate_code": "RG",
    "openGeoDB:loc_id": "26556",
    "openGeoDB:telephone_area_code": "03525",
    "place": "town",
    "population": "5891",
    "postal_code": "01619",
    "wikidata": "Q8838",
    "wikipedia": "de:Zeithain"
  }
},
{
  "type": "node",
  "id": 27217772,
  "lat": 51.5158115,
  "lon": 13.3927200,
  "tags": {
    "ele": "86",
    "name": "Bad Liebenwerda",
    "name:hsb": "Rukow",
    "name:ru": "Бад-Либенверда",
    "name:sr": "Бад Либенверда",
    "place": "town",
    "population": "9486",
    "postal_code": "04924",
    "short_name": "BaLi",
    "website": "https://www.badliebenwerda.de/",
    "wikidata": "Q589277",
    "wikipedia": "de:Bad Liebenwerda"
  }
},
{
  "type": "node",
  "id": 27221593,
  "lat": 51.3709574,
  "lon": 12.7410574,
  "tags": {
    "alt_name": "Ringelnatzstadt",
    "contact:facebook": "https://www.facebook.com/Stadt-Wurzen-599789686772760/",
    "ele": "124",
    "is_in": "Muldentalkreis,Leipzig,Sachsen,Bundesrepublik Deutschland,Europe",
    "name": "Wurzen",
    "name:ru": "Вурцен",
    "name:sr": "Вурцен",
    "openGeoDB:community_identification_number": "14383340",
    "openGeoDB:is_in_loc_id": "514",
    "openGeoDB:layer": "6",
    "openGeoDB:license_plate_code": "MTL",
    "openGeoDB:loc_id": "26494",
    "openGeoDB:telephone_area_code": "03425",
    "place": "town",
    "population": "16327",
    "postal_code": "04808",
    "website": "https://www.wurzen.de/",
    "wikidata": "Q10784",
    "wikipedia": "de:Wurzen"
  }
},
{
  "type": "node",
  "id": 27223176,
  "lat": 50.1883107,
  "lon": 10.8443272,
  "tags": {
    "name": "Seßlach",
    "place": "town",
    "population": "4082",
    "wikidata": "Q572667",
    "wikipedia": "de:Seßlach"
  }
},
{
  "type": "node",
  "id": 27284903,
  "lat": 48.5620891,
  "lon": 9.6264045,
  "tags": {
    "name": "Wiesensteig",
    "openGeoDB:auto_update": "population,is_in",
    "openGeoDB:combination_of_public_administration": "Verwaltungsverband Oberes Filstal",
    "openGeoDB:community_identification_number": "08117058",
    "openGeoDB:is_in": "Göppingen,Stuttgart,Baden-Württemberg,Bundesrepublik Deutschland,Europe",
    "openGeoDB:is_in_loc_id": "373",
    "openGeoDB:layer": "6",
    "openGeoDB:license_plate_code": "GP",
    "openGeoDB:loc_id": "26136",
    "openGeoDB:name": "Wiesensteig",
    "openGeoDB:population": "2291",
    "openGeoDB:postal_codes": "73349",
    "openGeoDB:sort_name": "WIESENSTEIG",
    "openGeoDB:telephone_area_code": "07335",
    "openGeoDB:type": "Stadt",
    "openGeoDB:version": "0.2.6.11 / 2007-12-04 / http://fa-technik.adfc.de/code/opengeodb/dump/",
    "opengeodb:lat": "48.5623253",
    "opengeodb:lon": "9.62722",
    "place": "town",
    "population": "2291"
  }
},
{
  "type": "node",
  "id": 27299841,
  "lat": 52.6240560,
  "lon": 10.0810520,
  "tags": {
    "name": "Celle",
    "name:ja": "ツェレ",
    "name:la": "Cella",
    "name:lt": "Celė",
    "name:nds": "Celle",
    "name:prefix": "Stadt5",
    "name:sr": "Целе",
    "name:uk": "Целле",
    "place": "town",
    "population": "69748",
    "ref:LOCODE": "DECEL",
    "wikidata": "Q3933"
  }
},
{
  "type": "node",
  "id": 27343226,
  "lat": 51.2383379,
  "lon": 12.7287511,
  "tags": {
    "loc_name": "Grimme",
    "name": "Grimma",
    "name:hsb": "Křemjeń (Grimma)",
    "name:ru": "Гримма",
    "name:sr": "Грима",
    "openGeoDB:community_identification_number": "14383120",
    "openGeoDB:license_plate_code": "MTL",
    "openGeoDB:loc_id": "17371",
    "openGeoDB:telephone_area_code": "03437",
    "place": "town",
    "population": "15000",
    "postal_code": "04668",
    "ref:LOCODE": "DEGMA",
    "wikidata": "Q10780",
    "wikipedia": "de:Grimma"
  }
},
{
  "type": "node",
  "id": 27354580,
  "lat": 51.0809920,
  "lon": 6.3160684,
  "tags": {
    "ele": "92",
    "name": "Erkelenz",
    "name:fa": "ارکلنز",
    "name:kk": "Эркеленц",
    "name:ru": "Эркеленц",
    "name:sr": "Еркеленц",
    "name:zh": "埃尔克伦茨",
    "openGeoDB:community_identification_number": "05370004",
    "openGeoDB:license_plate_code": "HS",
    "openGeoDB:loc_id": "16272",
    "openGeoDB:telephone_area_code": "02431",
    "place": "town",
    "population": "42792",
    "postal_code": "41812",
    "ref:LOCODE": "DEERK",
    "wikidata": "Q7025",
    "wikipedia": "de:Erkelenz"
  }
},
{
  "type": "node",
  "id": 27356634,
  "lat": 48.9328266,
  "lon": 8.2704865,
  "tags": {
    "ele": "119",
    "name": "Durmersheim",
    "name:sr": "Дурмерсхајм",
    "name:uk": "Дурмерсгайм",
    "openGeoDB:combination_of_public_administration": "Verwaltungsverband Durmersheim",
    "openGeoDB:community_identification_number": "08216009",
    "openGeoDB:is_in_loc_id": "364",
    "openGeoDB:license_plate_code": "RA",
    "openGeoDB:loc_id": "15893",
    "openGeoDB:telephone_area_code": "07245",
    "openGeoDB:type": "Gemeinde",
    "place": "town",
    "population": "11954",
    "postal_code": "76448",
    "wikidata": "Q81858",
    "wikipedia": "de:Durmersheim"
  }
},
{
  "type": "node",
  "id": 27357709,
  "lat": 47.7146970,
  "lon": 7.6610865,
  "tags": {
    "ele": "352",
    "name": "Kandern",
    "name:gsw": "Chander",
    "name:ru": "Кандерн",
    "name:sr": "Кандерн",
    "openGeoDB:is_in_loc_id": "19072",
    "openGeoDB:license_plate_code": "LÖ",
    "openGeoDB:loc_id": "85351",
    "place": "town",
    "population": "4000",
    "postal_code": "79400",
    "wikidata": "Q61661"
  }
},
{
  "type": "node",
  "id": 27358183,
  "lat": 47.6120896,
  "lon": 7.6607218,
  "tags": {
    "ele": "294",
    "name": "Lörrach",
    "name:gsw": "Lörrech",
    "name:ru": "Лёррах",
    "name:sr": "Лерах",
    "openGeoDB:is_in_loc_id": "349",
    "openGeoDB:loc_id": "20347",
    "place": "town",
    "population": "48307",
    "website": "https://www.loerrach.de/",
    "wikidata": "Q6855",
    "wikipedia": "de:Lörrach"
  }
},
{
  "type": "node",
  "id": 27361870,
  "lat": 50.0049158,
  "lon": 9.2009660,
  "tags": {
    "name": "Hösbach",
    "name:sr": "Хесбах",
    "openGeoDB:community_identification_number": "09671130",
    "openGeoDB:is_in_loc_id": "478",
    "openGeoDB:license_plate_code": "AB",
    "openGeoDB:loc_id": "18462",
    "openGeoDB:telephone_area_code": "06021",
    "openGeoDB:type": "Markt",
    "place": "town",
    "population": "13359",
    "postal_code": "63768",
    "website": "http://www.hoesbach.de",
    "wikidata": "Q503312",
    "wikipedia": "de:Hösbach"
  }
},
{
  "type": "node",
  "id": 27362978,
  "lat": 51.1295496,
  "lon": 12.8065842,
  "tags": {
    "ele": "156",
    "is_in": "Muldentalkreis,Leipzig,Sachsen,Bundesrepublik Deutschland,Europe",
    "name": "Colditz",
    "name:el": "Κόλντιτς",
    "name:hsb": "Koldica",
    "name:ru": "Кольдиц",
    "name:sr": "Колдиц",
    "name:zh": "科尔迪茨城堡",
    "openGeoDB:community_identification_number": "14383070",
    "openGeoDB:license_plate_code": "MTL",
    "openGeoDB:loc_id": "15320",
    "openGeoDB:population": "5506",
    "openGeoDB:telephone_area_code": "034381",
    "place": "town",
    "population": "8828",
    "postal_code": "04680",
    "ref:LOCODE": "DECOZ"
  }
},
{
  "type": "node",
  "id": 27371631,
  "lat": 51.1423588,
  "lon": 6.2776865,
  "tags": {
    "ele": "61",
    "name": "Wegberg",
    "name:ksh": "Weeschbersch",
    "name:prefix": "Mühlenstadt",
    "name:ru": "Вегберг",
    "name:sr": "Вегберг",
    "place": "town",
    "population": "27713",
    "postal_code": "41844",
    "wikidata": "Q204860",
    "wikipedia": "de:Wegberg"
  }
},
{
  "type": "node",
  "id": 27377727,
  "lat": 49.9732762,
  "lon": 6.5249470,
  "tags": {
    "name": "Bitburg",
    "name:de": "Bitburg",
    "name:lb": "Béibreg",
    "name:lt": "Bitburgas",
    "name:ru": "Битбург",
    "name:sr": "Битбург",
    "place": "town",
    "population": "15228",
    "postal_code": "54634",
    "website": "https://www.bitburg.de/",
    "wikidata": "Q258974",
    "wikipedia": "de:Bitburg"
  }
},
{
  "type": "node",
  "id": 27378585,
  "lat": 49.8378470,
  "lon": 12.0481655,
  "tags": {
    "is_in": "Tirschenreuth,Oberpfalz,Bayern,Bundesrepublik Deutschland,Europe",
    "name": "Erbendorf",
    "name:sr": "Ербендорф",
    "openGeoDB:auto_update": "population,is_in",
    "openGeoDB:community_identification_number": "09377116",
    "openGeoDB:is_in": "Tirschenreuth,Oberpfalz,Bayern,Bundesrepublik Deutschland,Europe",
    "openGeoDB:is_in_loc_id": "473",
    "openGeoDB:layer": "6",
    "openGeoDB:license_plate_code": "TIR",
    "openGeoDB:loc_id": "16251",
    "openGeoDB:name": "Erbendorf",
    "openGeoDB:population": "5369",
    "openGeoDB:postal_codes": "92681",
    "openGeoDB:sort_name": "ERBENDORF",
    "openGeoDB:telephone_area_code": "09682",
    "openGeoDB:type": "Stadt",
    "openGeoDB:version": "0.2.6.11 / 2007-12-04 / http://fa-technik.adfc.de/code/opengeodb/dump/",
    "opengeodb:lat": "49.8385099",
    "opengeodb:lon": "12.0492172",
    "place": "town",
    "population": "5369",
    "wikidata": "Q504596"
  }
},
{
  "type": "node",
  "id": 27383264,
  "lat": 47.4923741,
  "lon": 11.0962815,
  "tags": {
    "ele": "708",
    "image": "https://commons.wikimedia.org/wiki/Category:Garmisch-Partenkirchen?uselang=de",
    "is_in": "Garmisch-Partenkirchen,Oberbayern,Bayern,Bundesrepublik Deutschland,Europe",
    "name": "Garmisch-Partenkirchen",
    "name:ar": "غارميش-بارتنكيرشن",
    "name:bar": "Garmasch-Partakurch",
    "name:bg": "Гармиш-Партенкирхен",
    "name:el": "Γκάρμις-Παρτενκίρχεν",
    "name:fa": "گارمیش-پارتنکیرشن",
    "name:he": "גרמיש-פרטנקירכן",
    "name:ja": "ガルミッシュ＝パルテンキルヒェン",
    "name:ko": "가르미슈파르텐키르헨",
    "name:ru": "Гармиш-Партенкирхен",
    "name:sr": "Гармиш-Партенкирхен",
    "openGeoDB:community_identification_number": "09180117",
    "openGeoDB:is_in_loc_id": "207",
    "openGeoDB:layer": "6",
    "openGeoDB:license_plate_code": "GAP",
    "openGeoDB:loc_id": "16838",
    "openGeoDB:telephone_area_code": "08821",
    "openGeoDB:type": "Markt",
    "place": "town",
    "population": "26102",
    "postal_code": "82467",
    "website": "https://www.gapa.de/",
    "wikidata": "Q127043",
    "wikipedia": "de:Garmisch-Partenkirchen"
  }
},
{
  "type": "node",
  "id": 27385079,
  "lat": 54.9064856,
  "lon": 8.3071734,
  "tags": {
    "de:amtlicher_gemeindeschluessel": "01054151",
    "ele": "5",
    "int_name": "Westerland",
    "name": "Westerland",
    "name:da": "Vesterland",
    "name:de": "Westerland",
    "name:en": "Westerland",
    "name:frr": "Weesterlön",
    "name:it": "Westerland",
    "name:kk": "Вестерланд",
    "name:nl": "Westerland",
    "name:pl": "Westerland",
    "name:pt": "Westerland",
    "name:ru": "Вестерланд",
    "name:sl": "Westerland",
    "name:sr": "Вестерланд",
    "place": "town",
    "population": "9078",
    "postal_code": "25980",
    "wikidata": "Q27998",
    "wikipedia": "de:Westerland"
  }
},
{
  "type": "node",
  "id": 27386718,
  "lat": 47.5932802,
  "lon": 7.6116133,
  "tags": {
    "contact:website": "http://www.weil-am-rhein.de",
    "ele": "279",
    "name": "Weil am Rhein",
    "name:fr": "Wil-sur-le-Rhin",
    "name:gsw": "Wiil am Rhy",
    "name:ru": "Вайль-на-Рейне",
    "name:sr": "Вајл ам Рајн",
    "openGeoDB:is_in_loc_id": "25811",
    "openGeoDB:loc_id": "81875",
    "place": "town",
    "population": "30000",
    "wikidata": "Q61909",
    "wikipedia": "de:Weil am Rhein"
  }
},
{
  "type": "node",
  "id": 27388601,
  "lat": 47.5675998,
  "lon": 10.6993217,
  "tags": {
    "alt_name": "Fuessen",
    "ele": "808",
    "name": "Füssen",
    "name:bar": "Fiassa",
    "name:de": "Füssen",
    "name:sr": "Фисен",
    "openGeoDB:community_identification_number": "09777129",
    "openGeoDB:license_plate_code": "OAL",
    "openGeoDB:loc_id": "16768",
    "openGeoDB:telephone_area_code": "08362",
    "place": "town",
    "population": "14139",
    "wikidata": "Q262684",
    "wikipedia": "de:Füssen"
  }
},
{
  "type": "node",
  "id": 27402033,
  "lat": 52.0771518,
  "lon": 8.7554739,
  "tags": {
    "ele": "72",
    "name": "Bad Salzuflen",
    "place": "town",
    "population": "30000"
  }
},
{
  "type": "node",
  "id": 27402040,
  "lat": 52.0280674,
  "lon": 8.9012894,
  "tags": {
    "alt_name:nds": "Lemje",
    "alt_name:zh": "乐馍",
    "alt_name:zh_pinyin": "lèmó",
    "name": "Lemgo",
    "name:de": "Lemgo",
    "name:ja": "レムゴ",
    "name:nds": "Lemge",
    "name:ru": "Лемго",
    "name:sr": "Лемго",
    "place": "town",
    "population": "40717",
    "postal_code": "32657",
    "website": "http://www.lemgo.net/",
    "wikidata": "Q14817",
    "wikipedia": "de:Lemgo"
  }
},
{
  "type": "node",
  "id": 27402614,
  "lat": 48.8263983,
  "lon": 9.0658446,
  "tags": {
    "ele": "303",
    "name": "Ditzingen",
    "name:ar": "ديتزينجين",
    "name:de": "Ditzingen",
    "name:fa": "دیتزینگن",
    "name:ru": "Дитцинген",
    "name:sr": "Дицинген",
    "openGeoDB:community_identification_number": "08118011",
    "openGeoDB:is_in_loc_id": "594",
    "openGeoDB:license_plate_code": "LB",
    "openGeoDB:loc_id": "15660",
    "openGeoDB:telephone_area_code": "07156",
    "place": "town",
    "population": "24272",
    "postal_code": "71254",
    "wikidata": "Q61658",
    "wikipedia": "de:Ditzingen"
  }
},
{
  "type": "node",
  "id": 27421831,
  "lat": 48.4896773,
  "lon": 9.6861474,
  "tags": {
    "name": "Laichingen",
    "name:als": "Loechenge",
    "name:ar": "لايشنغن",
    "name:fa": "لایشنگن",
    "name:hy": "Լայխինգեն",
    "name:ka": "ლაიხინგენი",
    "name:ru": "Лайхинген",
    "name:sr": "Лајхинген",
    "name:zh": "莱欣根",
    "openGeoDB:auto_update": "population,is_in",
    "openGeoDB:combination_of_public_administration": "Verwaltungsgemeinschaft Laichinger Alb",
    "openGeoDB:community_identification_number": "08425071",
    "openGeoDB:is_in": "Alb-Donau-Kreis,Tübingen,Baden-Württemberg,Bundesrepublik Deutschland,Europe",
    "openGeoDB:is_in_loc_id": "607",
    "openGeoDB:layer": "6",
    "openGeoDB:license_plate_code": "UL",
    "openGeoDB:loc_id": "19863",
    "openGeoDB:name": "Laichingen",
    "openGeoDB:population": "10968",
    "openGeoDB:postal_codes": "89150",
    "openGeoDB:sort_name": "LAICHINGEN",
    "openGeoDB:telephone_area_code": "07333",
    "openGeoDB:type": "Stadt",
    "openGeoDB:version": "0.2.6.11 / 2007-12-04 / http://fa-technik.adfc.de/code/opengeodb/dump/",
    "opengeodb:lat": "48.4936829",
    "opengeodb:lon": "9.6849405",
    "place": "town",
    "population": "10968",
    "wikidata": "Q515438",
    "wikipedia": "de:Laichingen"
  }
},
{
  "type": "node",
  "id": 27427605,
  "lat": 48.2751679,
  "lon": 9.4781135,
  "tags": {
    "ele": "661",
    "name": "Hayingen",
    "name:sr": "Хајлинген",
    "name:uk": "Гаїнген",
    "place": "town",
    "population": "2141",
    "website": "https://www.hayingen.de/",
    "wikidata": "Q82453",
    "wikipedia": "de:Hayingen"
  }
},
{
  "type": "node",
  "id": 27429348,
  "lat": 51.9362840,
  "lon": 8.8791526,
  "tags": {
    "ele": "134",
    "name": "Detmold",
    "name:de": "Detmold",
    "name:la": "Detmolda",
    "name:nds": "Deppelt",
    "name:sr": "Детмолд",
    "place": "town",
    "population": "73449",
    "website": "http://www.detmold.de",
    "wikidata": "Q3922",
    "wikipedia": "de:Detmold"
  }
},
{
  "type": "node",
  "id": 27441649,
  "lat": 51.2973261,
  "lon": 6.8493503,
  "tags": {
    "ele": "50",
    "name": "Ratingen",
    "name:sr": "Ратинген",
    "openGeoDB:community_identification_number": "05158028",
    "openGeoDB:license_plate_code": "ME",
    "openGeoDB:loc_id": "22828",
    "openGeoDB:postal_codes": "40878,40880,40882,40883,40885",
    "openGeoDB:telephone_area_code": "02102",
    "place": "town",
    "population": "93099",
    "website": "https://www.stadt-ratingen.de/",
    "wikidata": "Q3791",
    "wikipedia": "de:Ratingen"
  }
},
{
  "type": "node",
  "id": 27453044,
  "lat": 50.9180910,
  "lon": 14.1534018,
  "tags": {
    "ele": "146",
    "is_in": "Sächsische Schweiz-Osterzgebirge,Dresden,Sachsen,Bundesrepublik Deutschland,Europe",
    "name": "Bad Schandau",
    "name:ar": "باد شاندو",
    "name:fa": "باد شاندو",
    "name:hsb": "Žandawa",
    "name:ru": "Бад-Шандау",
    "name:sr": "Бад Шандау",
    "name:ur": "باد شاندو",
    "openGeoDB:auto_update": "population,is_in",
    "openGeoDB:combination_of_public_administration": "Verwaltungsgemeinschaft Bad Schandau",
    "openGeoDB:community_identification_number": "14287020",
    "openGeoDB:is_in": "Sächsische Schweiz,Dresden,Sachsen,Bundesrepublik Deutschland,Europe",
    "openGeoDB:is_in_loc_id": "487",
    "openGeoDB:layer": "6",
    "openGeoDB:license_plate_code": "PIR",
    "openGeoDB:loc_id": "13986",
    "openGeoDB:name": "Bad Schandau",
    "openGeoDB:population": "3190",
    "openGeoDB:postal_codes": "01814",
    "openGeoDB:sort_name": "BAD SCHANDAU",
    "openGeoDB:telephone_area_code": "035022",
    "openGeoDB:type": "Stadt",
    "openGeoDB:version": "0.2.6.11 / 2007-12-04 / http://fa-technik.adfc.de/code/opengeodb/dump/",
    "opengeodb:lat": "50.9187202",
    "opengeodb:lon": "14.15485",
    "place": "town",
    "population": "3761",
    "website": "https://www.bad-schandau.de/",
    "wikidata": "Q6406",
    "wikipedia": "de:Bad Schandau"
  }
},
{
  "type": "node",
  "id": 27453538,
  "lat": 53.7089898,
  "lon": 9.9891914,
  "tags": {
    "ele": "29",
    "is_in": "Segeberg,Schleswig-Holstein,Bundesrepublik Deutschland,Europe",
    "name": "Norderstedt",
    "name:sr": "Нордерштет",
    "place": "town",
    "population": "80420",
    "postal_code": "22846",
    "wikidata": "Q3928",
    "wikipedia": "de:Norderstedt"
  }
},
{
  "type": "node",
  "id": 27475503,
  "lat": 50.4115604,
  "lon": 9.0131557,
  "tags": {
    "description": "Nidda ist der namengebende Kernstadtteil und Verwaltungssitz.",
    "name": "Nidda",
    "name:sr": "Нида",
    "note": "Alle Daten des Gebiets der Kernstadt Nidda, sind in der zugehörigen Grenzrelation. Dieser node dient nur als (mögliches) label für den Gemeindenamen.",
    "place": "town"
  }
},
{
  "type": "node",
  "id": 27493170,
  "lat": 50.1284895,
  "lon": 11.2433970,
  "tags": {
    "name": "Altenkunstadt",
    "name:sr": "АЛтенкунштат",
    "place": "town",
    "population": "5609",
    "wikidata": "Q437368",
    "wikipedia": "de:Altenkunstadt"
  }
},
{
  "type": "node",
  "id": 27590677,
  "lat": 50.5157382,
  "lon": 7.3065922,
  "tags": {
    "name": "Bad Hönningen",
    "name:sr": "Бад Хенинген",
    "place": "town",
    "population": "5659",
    "postal_code": "53557",
    "wikidata": "Q537973",
    "wikipedia": "de:Bad Hönningen",
    "wikipedia:fr": "Bad Hönningen"
  }
},
{
  "type": "node",
  "id": 27644812,
  "lat": 50.9806294,
  "lon": 6.2676208,
  "tags": {
    "name": "Linnich",
    "name:ru": "Линних",
    "name:sr": "Линих",
    "place": "town",
    "wikidata": "Q200122",
    "wikipedia": "de:Linnich"
  }
},
{
  "type": "node",
  "id": 27644813,
  "lat": 51.1007618,
  "lon": 6.1561074,
  "tags": {
    "ele": "50",
    "is_in": "Kreis Heinsberg,Regierungsbezirk Köln,Nordrhein-Westfalen,Bundesrepublik Deutschland,Europe",
    "is_in:country_code": "DE",
    "is_in:iso_3166_2": "DE-NW",
    "name": "Wassenberg",
    "name:ru": "Вассенберг",
    "name:sr": "Васенберг",
    "openGeoDB:community_identification_number": "05370036",
    "openGeoDB:is_in_loc_id": "406",
    "openGeoDB:license_plate_code": "HS",
    "openGeoDB:loc_id": "25729",
    "openGeoDB:telephone_area_code": "02432",
    "place": "town",
    "population": "17182",
    "postal_code": "41849",
    "wikidata": "Q204919",
    "wikipedia": "de:Wassenberg"
  }
},
{
  "type": "node",
  "id": 27644815,
  "lat": 50.9220931,
  "lon": 6.3611015,
  "tags": {
    "alt_name:nl": "Gulik",
    "ele": "83",
    "name": "Jülich",
    "name:de": "Jülich",
    "name:en": "Jülich",
    "name:es": "Jülich",
    "name:fr": "Juliers",
    "name:it": "Jülich",
    "name:kk": "Юлих",
    "name:la": "Iuliacum",
    "name:nl": "Jülich",
    "name:ru": "Юлих",
    "name:zh": "于利希",
    "old_name:nl": "Gulik",
    "openGeoDB:community_identification_number": "05358024",
    "openGeoDB:license_plate_code": "DN",
    "openGeoDB:loc_id": "18986",
    "openGeoDB:telephone_area_code": "02461",
    "place": "town",
    "population": "33948",
    "postal_code": "52428",
    "wikidata": "Q16045",
    "wikipedia": "de:Jülich"
  }
},
{
  "type": "node",
  "id": 27794797,
  "lat": 49.8280688,
  "lon": 8.8338977,
  "tags": {
    "description": "Reinheim ist der namengebende Kernstadtteil und Verwaltungssitz der Stadt Reinheim. Ein Ortsbezirk mit Ortsbeirat wurde eingerichtet.",
    "name": "Reinheim",
    "name:sr": "Рајнхајм",
    "note": "Alle Daten zum Gebiet der Kernstadt, der Stadt Reinheim, sind in der zugehörigen Grenzrelation. Dieser node dient nur zur Markierung der Ortsmitte.",
    "place": "town"
  }
},
{
  "type": "node",
  "id": 27795799,
  "lat": 49.6786842,
  "lon": 9.0040963,
  "tags": {
    "description": "Die namengebende Kernstadt ist Verwaltungssitz der Stadt Michelstadt.",
    "name": "Michelstadt",
    "name:sr": "Михелштат",
    "note": "Alle Daten zum Gebiet der Kernstadt Michelstadt, sind in der zugehörigen Grenzrelation. Dieser node dient nur zur Markierung der Ortsmitte.",
    "place": "town"
  }
},
{
  "type": "node",
  "id": 27795900,
  "lat": 49.8013310,
  "lon": 8.9936445,
  "tags": {
    "description": "Die Kerngemeinde Höchst im Odenwald ist Verwaltungssitz der Gemeinde Höchst im Odenwald.",
    "int_name": "Hoechst i. Odw.",
    "name": "Höchst im Odenwald",
    "nat_name": "Höchst i. Odw.",
    "note": "Alle Daten zum Gebiet der Kerngemeinde Höchst im Odenwald, sind in der zugehörigen Grenzrelation. Dieser node dient nur zur Markierung der Ortsmitte.",
    "official_name": "Höchst i. Odw.",
    "place": "town",
    "short_name": "Höchst"
  }
},
{
  "type": "node",
  "id": 28096029,
  "lat": 52.9131332,
  "lon": 8.8198737,
  "tags": {
    "ele": "22",
    "name": "Syke",
    "name:nds": "Syke",
    "name:sr": "Зике",
    "place": "town",
    "population": "23666",
    "ref:LOCODE": "DESYK",
    "wikidata": "Q503751",
    "wikipedia": "de:Syke"
  }
},
{
  "type": "node",
  "id": 28124258,
  "lat": 53.0273530,
  "lon": 8.7497818,
  "tags": {
    "ele": "20",
    "name": "Stuhr",
    "name:ar": "اشتور",
    "name:de": "Stuhr",
    "name:sr": "Штур",
    "place": "town",
    "population": "32556",
    "postal_code": "28816",
    "ref:LOCODE": "DESTU",
    "wikidata": "Q16027",
    "wikipedia": "de:Stuhr"
  }
},
{
  "type": "node",
  "id": 28149816,
  "lat": 51.7979734,
  "lon": 12.4045328,
  "tags": {
    "ele": "64",
    "name": "Oranienbaum",
    "name:ru": "Ораниенбаум",
    "name:sr": "Ораниенбаум",
    "place": "town",
    "population": "3000",
    "postal_code": "06785",
    "wikidata": "Q1469188",
    "wikipedia": "de:Oranienbaum"
  }
},
{
  "type": "node",
  "id": 28214422,
  "lat": 51.2182735,
  "lon": 12.3241520,
  "tags": {
    "ele": "130",
    "is_in": "Leipziger Land,Leipzig,Sachsen,Bundesrepublik Deutschland,Europe",
    "name": "Zwenkau",
    "name:ru": "Цвенкау",
    "name:sr": "Цвенкау",
    "openGeoDB:community_identification_number": "14379750",
    "openGeoDB:license_plate_code": "L",
    "openGeoDB:loc_id": "26690",
    "openGeoDB:telephone_area_code": "034203",
    "place": "town",
    "population": "8813",
    "postal_code": "04442",
    "wikidata": "Q10779",
    "wikipedia": "de:Zwenkau"
  }
},
{
  "type": "node",
  "id": 28257616,
  "lat": 53.9196435,
  "lon": 10.6978692,
  "tags": {
    "name": "Bad Schwartau",
    "name:ru": "Бад-Швартау",
    "name:sr": "Бад Швартау",
    "note": "Alle Daten der Gemeinde sind in der zugehörigen Grenzrelation. Dieser node dient nur zur Markierung der Ortsmitte.",
    "place": "town"
  }
},
{
  "type": "node",
  "id": 28296828,
  "lat": 47.7811014,
  "lon": 9.6124680,
  "tags": {
    "de:amtlicher_gemeindeschluessel": "08436",
    "ele": "450",
    "license_plate_code": "RV",
    "name": "Ravensburg",
    "name:als": "Raveschburg",
    "name:ar": "رافنسبورغ",
    "name:de": "Ravensburg",
    "name:fa": "رافنزبورگ",
    "name:ko": "라벤스부르크",
    "name:ru": "Равенсбург",
    "name:sr": "Равензбург",
    "name:uk": "Равенсбург",
    "name:zh": "拉芬斯堡",
    "openGeoDB:is_in_loc_id": "377",
    "openGeoDB:loc_id": "22852",
    "place": "town",
    "population": "50776",
    "postal_code": "88212;88213;88214",
    "telephone_area_code": "0751",
    "website": "https://www.ravensburg.de",
    "wikidata": "Q6832",
    "wikipedia": "de:Ravensburg"
  }
},
{
  "type": "node",
  "id": 28390453,
  "lat": 48.5069519,
  "lon": 8.3720124,
  "tags": {
    "ele": "584",
    "name": "Baiersbronn",
    "name:sr": "Бајерсброн",
    "openGeoDB:community_identification_number": "08237004",
    "openGeoDB:is_in_loc_id": "581",
    "openGeoDB:layer": "6",
    "openGeoDB:license_plate_code": "FDS",
    "openGeoDB:loc_id": "14045",
    "openGeoDB:telephone_area_code": "07442",
    "place": "town",
    "population": "14453",
    "postal_code": "72270",
    "wikidata": "Q81241",
    "wikipedia": "de:Baiersbronn"
  }
},
{
  "type": "node",
  "id": 28390456,
  "lat": 48.4637727,
  "lon": 8.4111727,
  "tags": {
    "ele": "732",
    "name": "Freudenstadt",
    "name:ru": "Фройденштадт",
    "name:sr": "Фројденштат",
    "openGeoDB:combination_of_public_administration": "Verwaltungsgemeinschaft Freudenstadt",
    "openGeoDB:community_identification_number": "08237028",
    "openGeoDB:license_plate_code": "FDS",
    "openGeoDB:loc_id": "16674",
    "openGeoDB:telephone_area_code": "07441",
    "place": "town",
    "population": "23888",
    "postal_code": "72250",
    "wikidata": "Q82838",
    "wikipedia": "de:Freudenstadt"
  }
},
{
  "type": "node",
  "id": 28396755,
  "lat": 50.9331827,
  "lon": 12.7075852,
  "tags": {
    "name": "Penig",
    "name:hsb": "Pjeńk (Penig)",
    "name:sr": "Пениг",
    "openGeoDB:auto_update": "population,is_in",
    "openGeoDB:community_identification_number": "14182330",
    "openGeoDB:is_in": "Mittweida,Chemnitz,Sachsen,Bundesrepublik Deutschland,Europe",
    "openGeoDB:is_in_loc_id": "520",
    "openGeoDB:layer": "6",
    "openGeoDB:license_plate_code": "MW",
    "openGeoDB:loc_id": "22364",
    "openGeoDB:name": "Penig",
    "openGeoDB:population": "8447",
    "openGeoDB:postal_codes": "04657,09322",
    "openGeoDB:sort_name": "PENIG",
    "openGeoDB:telephone_area_code": "037381",
    "openGeoDB:type": "Stadt",
    "openGeoDB:version": "0.2.6.11 / 2007-12-04 / http://fa-technik.adfc.de/code/opengeodb/dump/",
    "opengeodb:lat": "50.9339685",
    "opengeodb:lon": "12.7070447",
    "place": "town",
    "population": "4903",
    "postal_code": "09322",
    "wikidata": "Q71145",
    "wikipedia": "de:Penig"
  }
},
{
  "type": "node",
  "id": 28398314,
  "lat": 50.8503529,
  "lon": 13.0772325,
  "tags": {
    "ele": "275",
    "name": "Flöha",
    "name:sr": "Флеха",
    "note": "Center of Flöha; relation 162283",
    "place": "town",
    "population": "11128",
    "postal_code": "09557",
    "wikidata": "Q71166",
    "wikipedia": "de:Flöha"
  }
},
{
  "type": "node",
  "id": 28424917,
  "lat": 47.6500525,
  "lon": 7.8216997,
  "tags": {
    "ele": "373",
    "name": "Schopfheim",
    "name:gsw": "Schopfe",
    "name:ru": "Шопфхайм",
    "name:sr": "Шопфхајм",
    "openGeoDB:loc_id": "23938",
    "place": "town",
    "wikidata": "Q61734"
  }
},
{
  "type": "node",
  "id": 28449698,
  "lat": 51.0552368,
  "lon": 6.2247322,
  "tags": {
    "ele": "75",
    "name": "Hückelhoven",
    "name:ru": "Хюккельхофен",
    "name:sr": "Хикелховен",
    "openGeoDB:community_identification_number": "05370020",
    "openGeoDB:is_in_loc_id": "406",
    "openGeoDB:layer": "6",
    "openGeoDB:license_plate_code": "HS",
    "openGeoDB:loc_id": "18702",
    "openGeoDB:telephone_area_code": "02433",
    "place": "town",
    "population": "38709",
    "postal_code": "41836",
    "wikidata": "Q14884",
    "wikipedia": "de:Hückelhoven"
  }
},
{
  "type": "node",
  "id": 28508932,
  "lat": 50.0597943,
  "lon": 7.7683997,
  "tags": {
    "name": "Bacharach",
    "name:sr": "Бахарах",
    "place": "town",
    "population": "2120",
    "postal_code": "55422",
    "website": "https://www.bacharach.de/"
  }
},
{
  "type": "node",
  "id": 28782006,
  "lat": 53.6468107,
  "lon": 7.6118499,
  "tags": {
    "ele": "3",
    "name": "Esens",
    "name:ru": "Эзенс",
    "name:sr": "Езенс",
    "place": "town",
    "population": "7221",
    "postal_code": "26427",
    "ref:LOCODE": "DE76Y",
    "website": "https://esens.de/",
    "wikidata": "Q509338",
    "wikipedia": "de:Esens"
  }
},
{
  "type": "node",
  "id": 28782015,
  "lat": 53.5736426,
  "lon": 7.9020696,
  "tags": {
    "ele": "9",
    "name": "Jever",
    "name:fy": "Jever",
    "name:la": "Geverae",
    "name:nds": "Jever",
    "name:ru": "Йевер",
    "name:sr": "Јевер",
    "place": "town",
    "population": "13829",
    "postal_code": "26441",
    "website": "https://www.stadt-jever.de/",
    "wikidata": "Q31084",
    "wikipedia": "de:Jever"
  }
},
{
  "type": "node",
  "id": 28790715,
  "lat": 49.9207462,
  "lon": 9.0755904,
  "tags": {
    "ele": "137",
    "name": "Großostheim",
    "place": "town",
    "population": "8505",
    "postal_code": "63762",
    "wikidata": "Q504246",
    "wikipedia": "de:Großostheim"
  }
},
{
  "type": "node",
  "id": 28838514,
  "lat": 54.1298489,
  "lon": 8.8586989,
  "tags": {
    "name": "Büsum",
    "name:sr": "Бизум",
    "note": "Alle Daten zum Gebiet sind in der zugehörigen Grenzrelation",
    "place": "town"
  }
},
{
  "type": "node",
  "id": 28933025,
  "lat": 49.7805844,
  "lon": 9.9829734,
  "tags": {
    "is_in": "Würzburg,Unterfranken,Bayern,Bundesrepublik Deutschland,Europe",
    "name": "Gerbrunn",
    "name:sr": "Гебрун",
    "openGeoDB:auto_update": "population,is_in",
    "openGeoDB:community_identification_number": "09679136",
    "openGeoDB:is_in": "Würzburg,Unterfranken,Bayern,Bundesrepublik Deutschland,Europe",
    "openGeoDB:is_in_loc_id": "273",
    "openGeoDB:layer": "6",
    "openGeoDB:license_plate_code": "WÜ",
    "openGeoDB:loc_id": "16953",
    "openGeoDB:name": "Gerbrunn",
    "openGeoDB:population": "6267",
    "openGeoDB:postal_codes": "97218",
    "openGeoDB:sort_name": "GERBRUNN",
    "openGeoDB:telephone_area_code": "0931",
    "openGeoDB:type": "Gemeinde",
    "openGeoDB:version": "0.2.6.11 / 2007-12-04 / http://fa-technik.adfc.de/code/opengeodb/dump/",
    "opengeodb:lat": "49.7805844",
    "opengeodb:lon": "9.9829734",
    "place": "town",
    "population": "6267",
    "website": "https://gerbrunn.de/",
    "wikidata": "Q545262",
    "wikipedia": "en:Gerbrunn"
  }
},
{
  "type": "node",
  "id": 28979768,
  "lat": 50.3219015,
  "lon": 11.9178807,
  "tags": {
    "name": "Hof",
    "name:de": "Hof",
    "name:hsb": "Dwórc",
    "name:ru": "Хоф",
    "name:sr": "Хоф",
    "place": "town",
    "population": "44522",
    "wikidata": "Q6938",
    "wikipedia": "de:Hof (Saale)"
  }
},
{
  "type": "node",
  "id": 28980010,
  "lat": 50.3661332,
  "lon": 11.6437323,
  "tags": {
    "description": "Markt",
    "name": "Bad Steben",
    "name:ru": "Бад-Штебен",
    "name:sr": "Бад Штебен",
    "place": "town",
    "population": "3618",
    "website": "https://www.bad-steben.de/",
    "wikidata": "Q522305",
    "wikipedia": "de:Bad Steben"
  }
},
{
  "type": "node",
  "id": 29006353,
  "lat": 48.8516578,
  "lon": 10.4885873,
  "tags": {
    "ele": "430",
    "is_in": "Donau-Ries,Schwaben,Bayern,Bundesrepublik Deutschland,Europe",
    "name": "Nördlingen",
    "name:sr": "Нердлинген",
    "openGeoDB:community_identification_number": "09779194",
    "openGeoDB:license_plate_code": "DON",
    "openGeoDB:loc_id": "21761",
    "openGeoDB:telephone_area_code": "09081",
    "place": "town",
    "population": "20546",
    "postal_code": "86720",
    "website": "https://www.noerdlingen.de/",
    "wikidata": "Q489902",
    "wikipedia": "de:Nördlingen"
  }
},
{
  "type": "node",
  "id": 29013572,
  "lat": 48.8736283,
  "lon": 10.2487381,
  "tags": {
    "name": "Lauchheim",
    "name:sr": "Лауххајм",
    "openGeoDB:auto_update": "population,is_in",
    "openGeoDB:combination_of_public_administration": "Verwaltungsverband Kapfenburg",
    "openGeoDB:community_identification_number": "08136038",
    "openGeoDB:is_in": "Ostalbkreis,Stuttgart,Baden-Württemberg,Bundesrepublik Deutschland,Europe",
    "openGeoDB:is_in_loc_id": "599",
    "openGeoDB:license_plate_code": "AA",
    "openGeoDB:loc_id": "19998",
    "openGeoDB:name": "Lauchheim",
    "openGeoDB:population": "4661",
    "openGeoDB:postal_codes": "73466",
    "openGeoDB:sort_name": "LAUCHHEIM",
    "openGeoDB:telephone_area_code": "07363",
    "openGeoDB:type": "Stadt",
    "openGeoDB:version": "0.2.6.11%20/%202007-12-04%20/%20http://fa-technik.adfc.de/code/opengeodb/dump/",
    "opengeodb:lat": "48.873623",
    "opengeodb:lon": "10.248752",
    "place": "town",
    "population": "4720",
    "wikidata": "Q574207"
  }
},
{
  "type": "node",
  "id": 29018503,
  "lat": 52.4016457,
  "lon": 13.2644532,
  "tags": {
    "ele": "39",
    "name": "Teltow",
    "name:ru": "Тельтов",
    "name:sr": "Телтов",
    "place": "town",
    "population": "19541",
    "postal_code": "14513",
    "wikidata": "Q572512",
    "wikipedia": "de:Teltow"
  }
},
{
  "type": "node",
  "id": 29076333,
  "lat": 51.2283518,
  "lon": 10.9481696,
  "tags": {
    "name": "Greußen",
    "place": "town"
  }
},
{
  "type": "node",
  "id": 29076334,
  "lat": 51.1624323,
  "lon": 10.9895340,
  "tags": {
    "name": "Straußfurt",
    "place": "town",
    "population": "2047"
  }
},
{
  "type": "node",
  "id": 29091016,
  "lat": 48.5820885,
  "lon": 11.0892955,
  "tags": {
    "name": "Pöttmes",
    "name:bar": "Bejmas",
    "name:hy": "Պյոտմես",
    "name:ja": "ペットメス",
    "name:ru": "Пётмес",
    "name:sr": "Петмес",
    "openGeoDB:auto_update": "population,is_in",
    "openGeoDB:combination_of_public_administration": "Verwaltungsgemeinschaft Pöttmes",
    "openGeoDB:community_identification_number": "09771156",
    "openGeoDB:is_in": "Aichach-Friedberg,Schwaben,Bayern,Bundesrepublik Deutschland,Europe",
    "openGeoDB:is_in_loc_id": "476",
    "openGeoDB:layer": "6",
    "openGeoDB:license_plate_code": "AIC",
    "openGeoDB:loc_id": "22542",
    "openGeoDB:name": "Pöttmes",
    "openGeoDB:population": "6330",
    "openGeoDB:postal_codes": "86554",
    "openGeoDB:sort_name": "POETTMES",
    "openGeoDB:telephone_area_code": "08253",
    "openGeoDB:type": "Markt",
    "openGeoDB:version": "0.2.6.11 / 2007-12-04 / http://fa-technik.adfc.de/code/opengeodb/dump/",
    "opengeodb:lat": "48.5834081",
    "opengeodb:lon": "11.1119878",
    "place": "town",
    "population": "6330",
    "wikidata": "Q251897",
    "wikipedia": "de:Pöttmes"
  }
},
{
  "type": "node",
  "id": 29094003,
  "lat": 47.7602106,
  "lon": 8.1314260,
  "tags": {
    "name": "St. Blasien",
    "name:ru": "Санкт-Блазиен",
    "note": "official name is \"St. Blasien\"",
    "openGeoDB:auto_update": "population,is_in",
    "openGeoDB:combination_of_public_administration": "Verwaltungsgemeinschaft Sankt Blasien",
    "openGeoDB:community_identification_number": "08337097",
    "openGeoDB:is_in": "Waldshut,Freiburg,Baden-Württemberg,Bundesrepublik Deutschland,Europe",
    "openGeoDB:is_in_loc_id": "570",
    "openGeoDB:license_plate_code": "WT",
    "openGeoDB:loc_id": "23528",
    "openGeoDB:name": "Sankt Blasien",
    "openGeoDB:population": "4080",
    "openGeoDB:postal_codes": "79837",
    "openGeoDB:sort_name": "ST. BLASIEN",
    "openGeoDB:telephone_area_code": "07672",
    "openGeoDB:type": "Stadt",
    "openGeoDB:version": "0.2.6.11%20/%202007-12-04%20/%20http://fa-technik.adfc.de/code/opengeodb/dump/",
    "opengeodb:lat": "47.7602106",
    "opengeodb:lon": "8.131426",
    "place": "town",
    "population": "4080",
    "website": "https://www.stblasien.de/",
    "wikidata": "Q145008",
    "wikipedia": "de:St. Blasien"
  }
},
{
  "type": "node",
  "id": 29112429,
  "lat": 47.9627599,
  "lon": 12.5952942,
  "tags": {
    "ele": "550",
    "name": "Traunreut",
    "name:sr": "Траунројт",
    "place": "town",
    "population": "20935",
    "population:date": "2017-06-30",
    "postal_code": "83301",
    "wikidata": "Q257379",
    "wikipedia": "de:Traunreut"
  }
},
{
  "type": "node",
  "id": 29123748,
  "lat": 50.7894372,
  "lon": 12.7343596,
  "tags": {
    "name": "Oberlungwitz",
    "name:sr": "Оберлунгвиц",
    "place": "town",
    "population": "5851",
    "wikidata": "Q20084"
  }
},
{
  "type": "node",
  "id": 29141989,
  "lat": 50.5098447,
  "lon": 10.7525581,
  "tags": {
    "is_in": "Landkreis Hildburghausen,Thüringen,Bundesrepublik Deutschland,Europe",
    "name": "Schleusingen",
    "name:ba": "Шлойзинген",
    "name:ru": "Шлойзинген",
    "name:sr": "Шлојзинген",
    "place": "town",
    "website": "https://www.schleusingen.de/",
    "wikidata": "Q504914",
    "wikimedia_commons": "Category:Schleusingen",
    "wikipedia": "de:Schleusingen"
  }
},
{
  "type": "node",
  "id": 29181998,
  "lat": 50.5788781,
  "lon": 13.0106108,
  "tags": {
    "license_plate_code": "ERZ;ANA",
    "name": "Annaberg-Buchholz",
    "place": "town",
    "population": "21604",
    "postal_code": "09456",
    "telephone_area_code": "03733",
    "wikidata": "Q57944",
    "wikipedia": "de:Annaberg-Buchholz"
  }
},
{
  "type": "node",
  "id": 29194602,
  "lat": 52.1068151,
  "lon": 8.9482343,
  "tags": {
    "name": "Hohenhausen",
    "place": "town",
    "wikidata": "Q939035",
    "wikipedia": "de:Hohenhausen"
  }
},
{
  "type": "node",
  "id": 29207168,
  "lat": 52.4257979,
  "lon": 9.4294425,
  "tags": {
    "ele": "43",
    "name": "Wunstorf",
    "name:nds": "Wunsdörp",
    "name:sr": "Вунсторф",
    "place": "town",
    "population": "40639",
    "wikidata": "Q14827",
    "wikipedia": "de:Wunstorf"
  }
},
{
  "type": "node",
  "id": 29262326,
  "lat": 50.8349097,
  "lon": 10.9461479,
  "tags": {
    "is_capital": "county",
    "name": "Arnstadt",
    "name:ba": "Арнштадт",
    "name:bg": "Арнщат",
    "name:de": "Arnstadt",
    "name:fa": "آرن‌اشتات",
    "name:kk": "Арнштадт",
    "name:la": "Arnstadium",
    "name:mk": "Арнштат",
    "name:ru": "Арнштадт",
    "name:sr": "Арнштат",
    "name:zh": "阿恩施塔特",
    "place": "town",
    "population": "27300",
    "wikidata": "Q490665",
    "wikipedia": "de:Arnstadt"
  }
},
{
  "type": "node",
  "id": 29325460,
  "lat": 50.5142346,
  "lon": 13.0900195,
  "tags": {
    "name": "Jöhstadt",
    "openGeoDB:auto_update": "population",
    "openGeoDB:community_identification_number": "14171190",
    "openGeoDB:is_in": "Annaberg,Chemnitz,Sachsen,Bundesrepublik Deutschland,Europe",
    "openGeoDB:is_in_loc_id": "484",
    "openGeoDB:layer": "6",
    "openGeoDB:license_plate_code": "ANA",
    "openGeoDB:loc_id": "18965",
    "openGeoDB:name": "Jöhstadt",
    "openGeoDB:population": "3381",
    "openGeoDB:postal_codes": "09477",
    "openGeoDB:sort_name": "JOEHSTADT",
    "openGeoDB:telephone_area_code": "037343",
    "openGeoDB:type": "Stadt",
    "openGeoDB:version": "0.2.6.11 / 2007-12-04 / http://fa-technik.adfc.de/code/opengeodb/dump/",
    "opengeodb:lat": "50.5148278",
    "opengeodb:lon": "13.0894519",
    "place": "town",
    "population": "3381"
  }
},
{
  "type": "node",
  "id": 29381503,
  "lat": 47.7054471,
  "lon": 7.8476208,
  "tags": {
    "name": "Zell im Wiesental",
    "name:ru": "Целль (Визенталь)",
    "openGeoDB:auto_update": "population,is_in",
    "openGeoDB:combination_of_public_administration": "Verwaltungsgemeinschaft Zell im Wiesental",
    "openGeoDB:community_identification_number": "08336103",
    "openGeoDB:is_in": "Lörrach,Freiburg,Baden-Württemberg,Bundesrepublik Deutschland,Europe",
    "openGeoDB:is_in_loc_id": "349",
    "openGeoDB:license_plate_code": "LÖ",
    "openGeoDB:loc_id": "26567",
    "openGeoDB:name": "Zell im Wiesental",
    "openGeoDB:population": "6067",
    "openGeoDB:postal_codes": "79669",
    "openGeoDB:sort_name": "ZELL",
    "openGeoDB:telephone_area_code": "07625",
    "openGeoDB:type": "Stadt",
    "openGeoDB:version": "0.2.6.11%20/%202007-12-04%20/%20http://fa-technik.adfc.de/code/opengeodb/dump/",
    "opengeodb:lat": "47.7053564",
    "opengeodb:lon": "7.8475065",
    "place": "town",
    "population": "6067",
    "wikidata": "Q61618"
  }
},
{
  "type": "node",
  "id": 29390714,
  "lat": 48.6374291,
  "lon": 9.1312415,
  "tags": {
    "name": "Waldenbuch",
    "place": "town",
    "population": "8726",
    "wikidata": "Q515637",
    "wikipedia": "de:Waldenbuch"
  }
},
{
  "type": "node",
  "id": 29397363,
  "lat": 51.7717757,
  "lon": 7.4446390,
  "tags": {
    "alt_name:nds": "Lünksel",
    "name": "Lüdinghausen",
    "name:nds": "Lünkhusen",
    "name:sr": "Лидингхаузен",
    "place": "town",
    "population": "24263",
    "wikidata": "Q14934",
    "wikipedia": "de:Lüdinghausen"
  }
},
{
  "type": "node",
  "id": 29586552,
  "lat": 52.6796244,
  "lon": 9.9101449,
  "tags": {
    "name": "Winsen (Aller)",
    "name:sr": "Винсен (Алер)",
    "place": "town",
    "population": "12554",
    "reg_name": "Winsen",
    "wikidata": "Q622498"
  }
},
{
  "type": "node",
  "id": 29620400,
  "lat": 53.5942039,
  "lon": 7.2067435,
  "tags": {
    "ele": "7",
    "loc_name": "Nörden",
    "name": "Norden",
    "name:fy": "Norden",
    "name:nds": "Nörden",
    "name:sr": "Норден",
    "place": "town",
    "population": "24887",
    "postal_code": "26506",
    "website": "https://www.norden.de/",
    "wikidata": "Q492366",
    "wikipedia": "de:Norden (Ostfriesland)"
  }
},
{
  "type": "node",
  "id": 29637694,
  "lat": 52.3144002,
  "lon": 9.9647193,
  "tags": {
    "ele": "53",
    "name": "Sehnde",
    "name:nds": "Seinje",
    "name:sr": "Зенде",
    "place": "town",
    "population": "23181",
    "postal_code": "31319",
    "wikidata": "Q625095",
    "wikipedia": "de:Sehnde"
  }
},
{
  "type": "node",
  "id": 29680830,
  "lat": 53.5574458,
  "lon": 13.2602781,
  "tags": {
    "ele": "18",
    "name": "Neubrandenburg",
    "name:ar": "نويبراندنبورغ",
    "name:de": "Neubrandenburg",
    "name:eo": "Novbrandenburgo",
    "name:fa": "نویبرندنبورگ",
    "name:ja": "ノイブランデンブルク",
    "name:nds": "Niegenbramborg",
    "name:pl": "Branibór Nowy",
    "name:prefix": "Vier-Tore-Stadt",
    "name:ru": "Нойбранденбург",
    "official_name": "Vier-Tore-Stadt Neubrandenburg",
    "place": "town",
    "population": "63437",
    "website": "https://www.neubrandenburg.de/",
    "wikidata": "Q3958",
    "wikipedia": "de:Neubrandenburg"
  }
},
{
  "type": "node",
  "id": 29693302,
  "lat": 49.1758229,
  "lon": 12.8529347,
  "tags": {
    "name": "Bad Kötzting",
    "openGeoDB:is_in_loc_id": "246",
    "openGeoDB:loc_id": "19572",
    "place": "town",
    "population": "4000"
  }
},
{
  "type": "node",
  "id": 29714898,
  "lat": 50.5759667,
  "lon": 9.1929639,
  "tags": {
    "name": "Ulrichstein",
    "name:ru": "Ульрихштайн",
    "name:sr": "Урлихштајн",
    "openGeoDB:auto_update": "population,is_in",
    "openGeoDB:community_identification_number": "06535018",
    "openGeoDB:is_in": "Vogelsbergkreis,Gießen,Hessen,Bundesrepublik Deutschland,Europe",
    "openGeoDB:is_in_loc_id": "323",
    "openGeoDB:license_plate_code": "VB",
    "openGeoDB:loc_id": "25212",
    "openGeoDB:name": "Ulrichstein",
    "openGeoDB:population": "3257",
    "openGeoDB:postal_codes": "35327",
    "openGeoDB:sort_name": "ULRICHSTEIN",
    "openGeoDB:telephone_area_code": "06645",
    "openGeoDB:type": "Stadt",
    "openGeoDB:version": "0.2.6.11%20/%202007-12-04%20/%20http://fa-technik.adfc.de/code/opengeodb/dump/",
    "opengeodb:lat": "50.5771869",
    "opengeodb:lon": "9.1957721",
    "place": "town",
    "population": "3257",
    "wikidata": "Q565534",
    "wikipedia": "de:Ulrichstein"
  }
},
{
  "type": "node",
  "id": 29727657,
  "lat": 49.1434266,
  "lon": 9.1240565,
  "tags": {
    "name": "Leingarten",
    "name:sr": "Лајнгартен",
    "place": "town",
    "population": "10429",
    "wikidata": "Q521981",
    "wikipedia": "de:Leingarten"
  }
},
{
  "type": "node",
  "id": 29731723,
  "lat": 49.0002603,
  "lon": 9.7698525,
  "tags": {
    "name": "Gaildorf",
    "name:sr": "Гајлдорф",
    "place": "town",
    "population": "12592",
    "wikidata": "Q81811"
  }
},
{
  "type": "node",
  "id": 29736474,
  "lat": 49.2393031,
  "lon": 9.1012680,
  "tags": {
    "ele": "235",
    "name": "Bad Rappenau",
    "name:sr": "Бад Рапенау",
    "openGeoDB:combination_of_public_administration": "Verwaltungsgemeinschaft Bad Rappenau",
    "place": "town",
    "population": "20193",
    "postal_code": "74906",
    "website": "https://www.badrappenau.de/",
    "wikidata": "Q27918",
    "wikipedia": "de:Bad Rappenau"
  }
},
{
  "type": "node",
  "id": 29748262,
  "lat": 49.1062614,
  "lon": 11.4397894,
  "tags": {
    "name": "Berching",
    "opengeodb:lat": "49.1072073",
    "opengeodb:lon": "11.4406742",
    "place": "town",
    "website": "https://www.berching.de/",
    "wikidata": "Q31910286",
    "wikimedia_commons": "Category:Berching",
    "wikipedia": "de:Berching"
  }
},
{
  "type": "node",
  "id": 29764663,
  "lat": 47.8303378,
  "lon": 7.9452378,
  "tags": {
    "name": "Todtnau",
    "name:he": "todtnau",
    "name:ru": "Тодтнау",
    "openGeoDB:auto_update": "population,is_in",
    "openGeoDB:community_identification_number": "08336087",
    "openGeoDB:is_in": "Lörrach,Freiburg,Baden-Württemberg,Bundesrepublik Deutschland,Europe",
    "openGeoDB:is_in_loc_id": "349",
    "openGeoDB:license_plate_code": "LÖ",
    "openGeoDB:loc_id": "25011",
    "openGeoDB:name": "Todtnau",
    "openGeoDB:population": "5077",
    "openGeoDB:postal_codes": "79674",
    "openGeoDB:sort_name": "TODTNAU",
    "openGeoDB:telephone_area_code": "07671",
    "openGeoDB:type": "Stadt",
    "openGeoDB:version": "0.2.6.11%20/%202007-12-04%20/%20http://fa-technik.adfc.de/code/opengeodb/dump/",
    "opengeodb:lat": "47.8303378",
    "opengeodb:lon": "7.9452378",
    "place": "town",
    "population": "5077",
    "website": "http://www.todtnauer-ferienland.de/de2/todtnau/index.php?lang=de&",
    "wikidata": "Q61665",
    "wikipedia": "de:Todtnau"
  }
},
{
  "type": "node",
  "id": 29812822,
  "lat": 48.8577633,
  "lon": 10.3523096,
  "tags": {
    "ele": "468",
    "name": "Bopfingen",
    "openGeoDB:combination_of_public_administration": "Verwaltungsgemeinschaft Bopfingen",
    "openGeoDB:community_identification_number": "08136010",
    "openGeoDB:license_plate_code": "AA",
    "openGeoDB:loc_id": "14764",
    "openGeoDB:telephone_area_code": "07362",
    "place": "town",
    "population": "11800",
    "postal_code": "73441",
    "wikidata": "Q628178",
    "wikipedia": "de:Bopfingen"
  }
},
{
  "type": "node",
  "id": 29838787,
  "lat": 51.0524125,
  "lon": 13.5362765,
  "tags": {
    "name": "Wilsdruff",
    "openGeoDB:auto_update": "population,is_in",
    "openGeoDB:community_identification_number": "14290450",
    "openGeoDB:is_in": "Weißeritzkreis,Dresden,Sachsen,Bundesrepublik Deutschland,Europe",
    "openGeoDB:is_in_loc_id": "491",
    "openGeoDB:layer": "6",
    "openGeoDB:license_plate_code": "DW",
    "openGeoDB:loc_id": "26205",
    "openGeoDB:name": "Wilsdruff",
    "openGeoDB:population": "13708",
    "openGeoDB:postal_codes": "01723",
    "openGeoDB:sort_name": "WILSDRUFF",
    "openGeoDB:telephone_area_code": "035204",
    "openGeoDB:type": "Stadt",
    "openGeoDB:version": "0.2.6.11 / 2007-12-04 / http://fa-technik.adfc.de/code/opengeodb/dump/",
    "opengeodb:lat": "51.0524125",
    "opengeodb:lon": "13.5362765",
    "place": "town",
    "population": "13708",
    "wikidata": "Q8248",
    "wikipedia": "de:Wilsdruff"
  }
},
{
  "type": "node",
  "id": 29840712,
  "lat": 51.1826980,
  "lon": 13.8361238,
  "tags": {
    "is_in": "Kamenz,Dresden,Sachsen,Bundesrepublik Deutschland,Europe",
    "loc_name": "Affendorf-Gorilla",
    "name": "Ottendorf-Okrilla",
    "name:hsb": "Woćicy-Okrila",
    "note": "\"town\" im Sinne der Bedeutung",
    "openGeoDB:auto_update": "population,is_in",
    "openGeoDB:community_identification_number": "14292415",
    "openGeoDB:is_in": "Bautzen,Dresden,Sachsen,Bundesrepublik Deutschland,Europe",
    "openGeoDB:is_in_loc_id": "263",
    "openGeoDB:layer": "6",
    "openGeoDB:license_plate_code": "BZ",
    "openGeoDB:loc_id": "22249",
    "openGeoDB:name": "Ottendorf-Okrilla",
    "openGeoDB:population": "10273",
    "openGeoDB:postal_codes": "01458",
    "openGeoDB:sort_name": "OTTENDORF-OKRILLA",
    "openGeoDB:telephone_area_code": "035205",
    "openGeoDB:type": "Gemeinde",
    "openGeoDB:version": "0.2.6.11 / 2007-12-04 / http://fa-technik.adfc.de/code/opengeodb/dump/",
    "opengeodb:lat": "51.1885415",
    "opengeodb:lon": "13.8380191",
    "place": "town",
    "population": "10273",
    "wikidata": "Q93276",
    "wikipedia": "de:Ottendorf-Okrilla"
  }
},